{"retCode":"1","retVal":[{"iid":"1","sv":"1","sd":"20000101000000","vtyp":"1","sno":"0001","sna":"捷運市政府站(3號出口)","sip":"10.7.0.11","tot":"180","sbi":"5","sarea":"信義區","mday":"20140105193821","lat":"25.0408578889","lng":"121.567904444","ar":"忠孝東路/松仁路(東南側)","sareaen":"Xinyi Dist.","snaen":"MRT Taipei City Hall Stataion(Exit 3)-2","aren":"The S.W. side of Road Zhongxiao East Road & Road Chung Yan.","nbcnt":"2","bemp":"173","act":"1"},{"iid":"2","sv":"1","sd":"20000101000000","vtyp":"1","sno":"0002","sna":"捷運國父紀念館站","sip":"10.250.2.1","tot":"38","sbi":"6","sarea":"信義區","mday":"20140105193807","lat":"25.0410833333","lng":"121.5578","ar":"捷運國父紀念館站(3號出口) ","sareaen":"Xinyi Dist.","snaen":"MRT S.Y.S Memorial Hall Stataion","aren":"The S.E. side of Road Zhongxiao East & Road Guangfu South.","nbcnt":"0","bemp":"31","act":"1"},{"iid":"3","sv":"1","sd":"20000101000000","vtyp":"1","sno":"0003","sna":"台北市政府","sip":"10.250.3.1","tot":"40","sbi":"0","sarea":"信義區","mday":"20140105193729","lat":"25.0377972222","lng":"121.565169444","ar":"台北市政府東門(松智路) ","sareaen":"Xinyi Dist.","snaen":"Taipei City Hall","aren":"Taipei City Government Eastgate (Song Zhi Road)","nbcnt":"0","bemp":"40","act":"1"},{"iid":"4","sv":"1","sd":"20000101000000","vtyp":"1","sno":"0004","sna":"市民廣場","sip":"10.250.4.1","tot":"60","sbi":"0","sarea":"信義區","mday":"20140105193822","lat":"25.0360361111","lng":"121.562325","ar":"市府路/松壽路(西北側) ","sareaen":"Xinyi Dist.","snaen":"Citizen Square","aren":"The N.W. side of Road Shifu & Road Song Shou.","nbcnt":"0","bemp":"60","act":"1"},{"iid":"5","sv":"1","sd":"20000101000000","vtyp":"1","sno":"0005","sna":"興雅國中","sip":"10.250.3.1","tot":"60","sbi":"7","sarea":"信義區","mday":"20140105193823","lat":"25.0365638889","lng":"121.5686639","ar":"","sareaen":"Xinyi Dist.","snaen":"","aren":"","nbcnt":"0","bemp":"53","act":"1"},{"iid":"6","sv":"1","sd":"20000101000000","vtyp":"1","sno":"0006","sna":"世貿二館","sip":"10.250.6.1","tot":"80","sbi":"3","sarea":"信義區","mday":"20140105193732","lat":"25.0347361111","lng":"121.565658333","ar":"松智路/松廉路(東北側) ","sareaen":"Xinyi Dist.","snaen":"TWTC Exhibition Hall 2","aren":"The N.E. side of Road Song Zhi & Road Song Lian.","nbcnt":"2","bemp":"75","act":"1"},{"iid":"7","sv":"1","sd":"20000101000000","vtyp":"1","sno":"0007","sna":"信義廣場(台北101)","sip":"10.250.7.1","tot":"80","sbi":"0","sarea":"信義區","mday":"20140105193816","lat":"25.0330388889","lng":"121.565619444","ar":"松智路/信義路(東北側) ","sareaen":"Xinyi Dist.","snaen":"Xinyi Square(Taipei 101)","aren":"The N.E. side of Road Song Zhi & Road Xinyi.","nbcnt":"1","bemp":"79","act":"1"},{"iid":"9","sv":"1","sd":"20000101000000","vtyp":"1","sno":"0008","sna":"世貿三館","sip":"10.250.8.1","tot":"60","sbi":"15","sarea":"信義區","mday":"20140105193811","lat":"25.0352138889","lng":"121.563688889","ar":"市府路/松壽路(東南側) ","sareaen":"Xinyi Dist.","snaen":"TWTC Exhibition Hall 3","aren":"The S.E. side of Road Shifu & Road Song Shou.","nbcnt":"1","bemp":"44","act":"1"},{"iid":"10","sv":"1","sd":"20000101000000","vtyp":"1","sno":"0009","sna":"松德站","sip":"10.250.9.1","tot":"32","sbi":"5","sarea":"信義區","mday":"20140105193825","lat":"25.03159","lng":"121.574353","ar":"台北市信義區松德路300號","sareaen":"Xinyi Dist.","snaen":"Songde","aren":"No.300, Songde Rd.","nbcnt":"0","bemp":"27","act":"1"},{"iid":"12","sv":"1","sd":"20000101000000","vtyp":"1","sno":"0010","sna":"台北市災害應變中心","sip":"10.250.10.1","tot":"54","sbi":"10","sarea":"信義區","mday":"20140105193811","lat":"25.0286611111","lng":"121.566116667","ar":"台北市信義區莊敬路391巷11弄2號","sareaen":"Xinyi Dist.","snaen":"Emergency Operations Center of Taipei City","aren":"No.2, Aly. 11, Ln. 391, Zhuangjing Rd.","nbcnt":"1","bemp":"43","act":"1"},{"iid":"13","sv":"1","sd":"20000101000000","vtyp":"1","sno":"0011","sna":"三張犁","sip":"10.250.11.1","tot":"26","sbi":"20","sarea":"信義區","mday":"20140105193824","lat":"25.034937","lng":"121.55762","ar":"光復南路/基隆路一段364巷","sareaen":"Xinyi Dist.","snaen":"Sanchangli","aren":"The S.E. side of Road Guangfu South & Ln. 346, Sec. 1, Keelung Rd.","nbcnt":"0","bemp":"6","act":"1"},{"iid":"27","sv":"1","sd":"20120725000000","vtyp":"1","sno":"0012","sna":"臺北醫學大學","sip":"","tot":"34","sbi":"27","sarea":"信義區","mday":"20140105193823","lat":"25.026679","lng":"121.561747","ar":"台北醫學大學(吳興街220巷59弄)","sareaen":"Xinyi Dist.","snaen":"Taipei Medical University","aren":"Aly. 59, Ln. 220, Wuxing St.","nbcnt":"0","bemp":"7","act":"1"},{"iid":"28","sv":"1","sd":"20120725000000","vtyp":"1","sno":"0013","sna":"福德公園","sip":"","tot":"66","sbi":"23","sarea":"信義區","mday":"20140105193817","lat":"25.03809","lng":"121.58367","ar":"大道路/福德街路口北西側","sareaen":"Xinyi Dist.","snaen":"Fude Park","aren":"The N.W. side of Road Dadao & St. Fude.","nbcnt":"2","bemp":"41","act":"1"},{"iid":"29","sv":"1","sd":"20120725000000","vtyp":"1","sno":"0014","sna":"榮星花園","sip":"","tot":"32","sbi":"22","sarea":"中山區","mday":"20140105193809","lat":"25.06424","lng":"121.54037","ar":"五常街/龍江路口(西南側)","sareaen":"Zhongshan Dist.","snaen":"Rongxing Park","aren":"The S.W. side of St.Wuchang & Road Longjiang.","nbcnt":"0","bemp":"9","act":"1"},{"iid":"30","sv":"1","sd":"20120725000000","vtyp":"1","sno":"0015","sna":"饒河夜市","sip":"","tot":"38","sbi":"29","sarea":"松山區","mday":"20140105193827","lat":"25.049845","lng":"121.571885","ar":"八德路/松信路(西南側)","sareaen":"Songshan Dist.","snaen":"Raohe Night Market","aren":"The S.W. side of Road Bade & Road SongXiny.","nbcnt":"0","bemp":"9","act":"1"},{"iid":"31","sv":"1","sd":"20120725000000","vtyp":"1","sno":"0016","sna":"松山家商","sip":"","tot":"48","sbi":"0","sarea":"信義區","mday":"20140105193808","lat":"25.036084","lng":"121.579135","ar":"林口街/福德街(南東側)","sareaen":"Xinyi Dist.","snaen":"Songshan Vocational High School","aren":"The S.E. side of St. Linkou & St. Fude.","nbcnt":"0","bemp":"48","act":"1"},{"iid":"32","sv":"1","sd":"20120725000000","vtyp":"1","sno":"0017","sna":"民生光復路口","sip":"","tot":"34","sbi":"34","sarea":"松山區","mday":"20140105193808","lat":"25.05840","lng":"121.55504","ar":"光復北路/民生東路(西北側)","sareaen":"Songshan Dist.","snaen":"Minsheng & Guangfu Intersection","aren":"The N.W. side of Road Guangfu S & Road Minsheng E.","nbcnt":"0","bemp":"0","act":"1"},{"iid":"33","sv":"1","sd":"20120725000000","vtyp":"1","sno":"0018","sna":"社教館","sip":"","tot":"38","sbi":"27","sarea":"松山區","mday":"20140105193815","lat":"25.048268","lng":"121.552278","ar":"八德路三段25號前","sareaen":"Songshan Dist.","snaen":"Taipei Cultural Center","aren":"No.25, Sec. 3, Bade Rd.","nbcnt":"0","bemp":"11","act":"1"},{"iid":"34","sv":"1","sd":"20120725000000","vtyp":"1","sno":"0019","sna":"中強公園","sip":"","tot":"30","sbi":"2","sarea":"信義區","mday":"20140105193815","lat":"25.02863","lng":"121.56981","ar":"松仁路153巷17號對面","sareaen":"Xinyi Dist.","snaen":"Zhongqiang Park","aren":"No.17, Ln. 153, Songren Rd","nbcnt":"0","bemp":"28","act":"1"},{"iid":"35","sv":"1","sd":"20120725000000","vtyp":"1","sno":"0020","sna":"捷運科技大樓站","sip":"","tot":"56","sbi":"16","sarea":"大安區","mday":"20140105193819","lat":"25.025896","lng":"121.543293","ar":"科技大樓站對面(復興南路2段西側)","sareaen":"Daan Dist.","snaen":"MRT Technology Bldg. Sta.","aren":"No.235, Sec. 2, Fusing S. Rd.","nbcnt":"0","bemp":"39","act":"1"},{"iid":"36","sv":"1","sd":"20120725000000","vtyp":"1","sno":"0021","sna":"民生敦化路口","sip":"","tot":"32","sbi":"12","sarea":"松山區","mday":"20140105193825","lat":"25.057985","lng":"121.548982","ar":"敦化民生路口公車站旁","sareaen":"Songshan Dist.","snaen":"Minsheng & Dunhua Intersection","aren":"The side of bus stop- Dunhua Minsheng Intersection.","nbcnt":"0","bemp":"20","act":"1"},{"iid":"37","sv":"1","sd":"20120725000000","vtyp":"1","sno":"0022","sna":"松山車站","sip":"","tot":"44","sbi":"5","sarea":"松山區","mday":"20140105193819","lat":"25.048616","lng":"121.578095","ar":"松山車站西出口外自行車格內","sareaen":"Songshan Dist.","snaen":"Songshan Rail Sta.","aren":"Bicycle parking lot- West exit in Songshan station","nbcnt":"1","bemp":"38","act":"1"},{"iid":"38","sv":"1","sd":"20120725000000","vtyp":"1","sno":"0023","sna":"東新國小","sip":"","tot":"32","sbi":"10","sarea":"南港區","mday":"20140105193826","lat":"25.055074","lng":"121.602798","ar":"東新國小側門(東明街62號前)","sareaen":"Nangang Dist.","snaen":"Dongxin Elementary School","aren":"A side entrance of Dongxin Elementery School(front of No. 62, Dongxin St.)","nbcnt":"0","bemp":"22","act":"1"},{"iid":"39","sv":"1","sd":"20120725000000","vtyp":"1","sno":"0024","sna":"信義建國路口","sip":"","tot":"46","sbi":"4","sarea":"大安區","mday":"20140105193811","lat":"25.03293","lng":"121.53747","ar":"建國南路/信義路(西南側)","sareaen":"Daan Dist.","snaen":"Xinyi & Jianguo Intersection","aren":"The S.W side of Jianguo South Rd. & Xinyi Rd. ","nbcnt":"0","bemp":"42","act":"1"},{"iid":"40","sv":"1","sd":"20120725000000","vtyp":"1","sno":"0025","sna":"永吉松信路口","sip":"","tot":"30","sbi":"19","sarea":"信義區","mday":"20140105193819","lat":"25.04543","lng":"121.57205","ar":"松信路/永吉路南西側人行道","sareaen":"Xinyi Dist.","snaen":"Yongji & Songxin Intersection","aren":"The sidewalk- the S.W. side of Songxin Rd. & Yongji Rd.","nbcnt":"0","bemp":"11","act":"1"},{"iid":"41","sv":"1","sd":"20120725000000","vtyp":"1","sno":"0026","sna":"捷運昆陽站(1號出口)","sip":"","tot":"42","sbi":"2","sarea":"南港區","mday":"20140105193733","lat":"25.050142","lng":"121.592375","ar":"捷運昆陽站1號出口外停車場旁","sareaen":"Nangang Dist.","snaen":"MRT Kunyang Sta. (Exit 1)","aren":"The side of parking lots in the MRT Kunyang station (exit 1)","nbcnt":"0","bemp":"40","act":"1"},{"iid":"42","sv":"1","sd":"20120725000000","vtyp":"1","sno":"0027","sna":"捷運南港展覽館站(5號出口)","sip":"","tot":"26","sbi":"1","sarea":"南港區","mday":"20140105193813","lat":"25.05469","lng":"121.61669","ar":"研究院路/市民大道路口(西南側)","sareaen":"Nangang Dist.","snaen":"MRT Nangang Exhibition Center Sta. (Exit 5)","aren":"The S.W side of Academia Rd. & Shihmin Blvd.","nbcnt":"0","bemp":"25","act":"1"},{"iid":"43","sv":"1","sd":"20120725000000","vtyp":"1","sno":"0028","sna":"五常公園","sip":"","tot":"36","sbi":"8","sarea":"信義區","mday":"20140105193821","lat":"25.04814","lng":"121.57467","ar":"松隆路/虎林街30巷口(西南側)","sareaen":"Xinyi Dist.","snaen":"Wuchang Park","aren":"The S.W side of Songlong Rd. & Hulin St.","nbcnt":"0","bemp":"28","act":"1"},{"iid":"44","sv":"1","sd":"20120725000000","vtyp":"1","sno":"0029","sna":"金山愛國路口","sip":"","tot":"54","sbi":"2","sarea":"大安區","mday":"20140105193732","lat":"25.03164","lng":"121.52655","ar":"愛國東路/金山南路(西南側)","sareaen":"Daan Dist.","snaen":"Jinshan & Aiguo Intersection","aren":"The S.W side of Aiguo St. & Jinshan Rd.","nbcnt":"0","bemp":"52","act":"1"},{"iid":"45","sv":"1","sd":"20120725000000","vtyp":"1","sno":"0030","sna":"基隆長興路口","sip":"","tot":"40","sbi":"10","sarea":"大安區","mday":"20140105193731","lat":"25.017054","lng":"121.544352","ar":"基隆路/長興街(東南側)","sareaen":"Daan Dist.","snaen":"Keelung & Changxing Intersection","aren":"The S.W side of Keelung Rd. & Changsing St.","nbcnt":"0","bemp":"30","act":"1"},{"iid":"46","sv":"1","sd":"20120725000000","vtyp":"1","sno":"0031","sna":"辛亥新生路口","sip":"","tot":"30","sbi":"16","sarea":"大安區","mday":"20140105193815","lat":"25.022413","lng":"121.53456","ar":"辛亥路/新生南路(高架橋下)","sareaen":"Daan Dist.","snaen":"Xinhai & Xinsheng Intersection","aren":"Under the bridge- Sinhai Rd. & Shinsheng S. Rd.","nbcnt":"0","bemp":"14","act":"1"},{"iid":"47","sv":"1","sd":"20120725000000","vtyp":"1","sno":"0032","sna":"捷運六張犁站","sip":"","tot":"30","sbi":"10","sarea":"大安區","mday":"20140105193818","lat":"25.023884","lng":"121.553161","ar":"捷運出口外和平東路側","sareaen":"Daan Dist.","snaen":"MRT Liuzhangli Sta.","aren":"The outside of the MRT exit and the side of Heping E. Rd.","nbcnt":"0","bemp":"20","act":"1"},{"iid":"48","sv":"1","sd":"20120725000000","vtyp":"1","sno":"0033","sna":"中崙高中","sip":"","tot":"46","sbi":"42","sarea":"松山區","mday":"20140105193731","lat":"25.04878","lng":"121.56087","ar":"八德路四段91巷(中崙高中)旁","sareaen":"Songshan Dist.","snaen":"Zhonglun High School","aren":"The side of Ln. 91, Sec. 4, Bade Rd. ( beside Zhong-Lun High School)","nbcnt":"0","bemp":"3","act":"1"},{"iid":"49","sv":"1","sd":"20120725000000","vtyp":"1","sno":"0034","sna":"捷運行天宮站(1號出口)","sip":"","tot":"32","sbi":"24","sarea":"中山區","mday":"20140105193813","lat":"25.058369","lng":"121.532934","ar":"捷運行天宮1號出口後方(松江路側)","sareaen":"Zhongshan Dist.","snaen":"MRT Xingtian Temple Sta. (Exit 1)","aren":"The side of Songjiang Rd.(the exit 1 of the MRT station of Xingtian Temple)","nbcnt":"0","bemp":"8","act":"1"},{"iid":"50","sv":"1","sd":"20120725000000","vtyp":"1","sno":"0035","sna":"捷運行天宮站(3號出口)","sip":"","tot":"30","sbi":"13","sarea":"中山區","mday":"20140105193824","lat":"25.059978","lng":"121.533302","ar":"捷運行天宮站3號出口站外","sareaen":"Zhongshan Dist.","snaen":"MRT Xingtian Temple Sta. (Exit 3)","aren":"The outside of the MRT station of Xingtian Temple.","nbcnt":"0","bemp":"17","act":"1"},{"iid":"51","sv":"1","sd":"20120725000000","vtyp":"1","sno":"0036","sna":"臺大資訊大樓","sip":"","tot":"32","sbi":"5","sarea":"大安區","mday":"20140105193815","lat":"25.02101","lng":"121.54153","ar":"辛亥路二段(臺大外語學院外)","sareaen":"Daan Dist.","snaen":"NTU Information Bldg.","aren":"Sec. 2, Xinghai Rd. (the outside ofLanguage Center of National Taiwan University)","nbcnt":"0","bemp":"27","act":"1"},{"iid":"52","sv":"1","sd":"20120725000000","vtyp":"1","sno":"0037","sna":"捷運東門站(4號出口)","sip":"","tot":"50","sbi":"7","sarea":"大安區","mday":"20140105193812","lat":"25.033700","lng":"121.529166 ","ar":"信義路/麗水街口","sareaen":"Daan Dist.","snaen":"MRT Dongmen Sta. (Exit 4)","aren":"Ren’ai Rd. & Lishuei St. ","nbcnt":"2","bemp":"41","act":"1"},{"iid":"53","sv":"1","sd":"20120725000000","vtyp":"1","sno":"0038","sna":"臺灣師範大學(圖書館)","sip":"","tot":"34","sbi":"7","sarea":"大安區","mday":"20140105193812","lat":"25.02665","lng":"121.52889","ar":"和平東路/師大路口(北側)","sareaen":"Daan Dist.","snaen":"NTNU Library","aren":"The N. side of Heping E. Rd. & Shihda Rd.","nbcnt":"0","bemp":"27","act":"1"},{"iid":"54","sv":"1","sd":"20120725000000","vtyp":"1","sno":"0039","sna":"南港世貿公園","sip":"","tot":"26","sbi":"3","sarea":"南港區","mday":"20140105193818","lat":"25.058","lng":"121.61422","ar":"三重路/經貿二路88巷(東北側)","sareaen":"Nangang Dist.","snaen":"Nangang Park","aren":"The N.E. side of Sanchong Rd. & Ln. 88, Jingmao 2nd Rd.","nbcnt":"0","bemp":"23","act":"1"},{"iid":"55","sv":"1","sd":"20120725000000","vtyp":"1","sno":"0040","sna":"玉成公園","sip":"","tot":"34","sbi":"18","sarea":"南港區","mday":"20140105193706","lat":"25.04287","lng":"121.58640","ar":"玉成街247號前","sareaen":"Nangang Dist.","snaen":"Yucheng Park","aren":"The front of No. 247, Yucheng St.","nbcnt":"0","bemp":"16","act":"1"},{"iid":"56","sv":"1","sd":"20120725000000","vtyp":"1","sno":"0041","sna":"中研公園","sip":"192.168.4.44","tot":"30","sbi":"27","sarea":"南港區","mday":"20140105193826","lat":"25.047425","lng":"121.613706","ar":"研究院路二段12巷/研究院路二段12巷58弄(西南側)","sareaen":"Nangang Dist.","snaen":"Academia Park","aren":"The S.W side of Ln. 12, Sec. 2, Academia Rd. & Aly. 58, Ln. 12, Sec. 2, Academia Rd.","nbcnt":"0","bemp":"3","act":"1"},{"iid":"60","sv":"1","sd":"20121128125356","vtyp":"1","sno":"0042","sna":"捷運後山埤站(1號出口)","sip":"192.168.4.47","tot":"38","sbi":"26","sarea":"南港區","mday":"20140105193814","lat":"25.04431","lng":"121.58174","ar":"中坡北路/忠孝東路五段(西北側)","sareaen":"Nangang Dist.","snaen":"MRT Houshanpi Sta.(Exit 1)","aren":"The S.W side of Jhongsiao E. Rd. & Jhongpo N. Rd.","nbcnt":"0","bemp":"12","act":"1"},{"iid":"61","sv":"1","sd":"20121128130528","vtyp":"1","sno":"0043","sna":"凌雲市場","sip":"192.168.4.49","tot":"36","sbi":"7","sarea":"南港區","mday":"20140105193806","lat":"25.035639","lng":"121.614154","ar":"研究院路三段68巷/凌雲街(東北側)","sareaen":"Nangang Dist.","snaen":"Linyun Market","aren":"The N.E. side of St. Lingyun & Academia Rd.","nbcnt":"0","bemp":"29","act":"1"},{"iid":"62","sv":"1","sd":"20121128131023","vtyp":"1","sno":"0044","sna":"捷運南港軟體園區站(2號出口)","sip":"192.168.4.45","tot":"36","sbi":"4","sarea":"南港區","mday":"20140105193815","lat":"25.05973","lng":"121.616187","ar":"捷運南港軟體園區站2號出口外","sareaen":"Nangang Dist. ","snaen":"MRT Nangang Software Park Sta.(Exit 2)","aren":"The outside of the MRT station exit 2 of Taipei Nangang Exhibition Center","nbcnt":"0","bemp":"31","act":"1"},{"iid":"63","sv":"1","sd":"20121128131220","vtyp":"1","sno":"0045","sna":"捷運公館站(2號出口)","sip":"192.168.4.48 ","tot":"30","sbi":"30","sarea":"大安區","mday":"20140105193827","lat":"25.01476  ","lng":"121.534538 ","ar":"羅斯福路四段/舟山路(東北側)","sareaen":"Daan Dist. ","snaen":"MRT Gongguan Sta.(Exit 2)","aren":"The N.W. side of Roosevelt Rd.& Sinhai Rd.","nbcnt":"0","bemp":"0","act":"1"},{"iid":"64","sv":"1","sd":"20121128131552","vtyp":"1","sno":"0046","sna":"南港國小","sip":"192.168.4.46","tot":"44","sbi":"2","sarea":"南港區","mday":"20140105193820","lat":"25.05646","lng":"121.611027 ","ar":"惠民街/興東街(南側停車場)","sareaen":"Nangang Dist. ","snaen":"Nangang Elementary School","aren":"The opposite of parking lots of exit Singdong St. (Nan-Gang Elementary School)","nbcnt":"0","bemp":"42","act":"1"},{"iid":"67","sv":"1","sd":"20121219100534","vtyp":"1","sno":"0047","sna":"捷運忠孝新生(3號出口)","sip":"192.168.4.50","tot":"40","sbi":"0","sarea":"大安區","mday":"20140105193824","lat":"25.041924 ","lng":"121.533862  ","ar":"捷運忠孝新生(3號出口)","sareaen":"Daan Dist.","snaen":"MRT Zhongxiao Xinsheng Sta.Exit 3 (testing)","aren":"The intersection of Sec. 3, Zhongxiao E. Rd. & Ln. 10, Sec. 3, Zhongxiao E. Rd.","nbcnt":"2","bemp":"38","act":"1"},{"iid":"68","sv":"1","sd":"20121219100955","vtyp":"1","sno":"0048","sna":"南港車站","sip":"192.168.4.51","tot":"38","sbi":"2","sarea":"南港區","mday":"20140105193809","lat":"25.05247","lng":"121.608202","ar":"忠孝東路七段與忠孝東路七段415巷交叉口","sareaen":"Nangang Dist.","snaen":"Nangang Rail Sta.","aren":"The intersection of Sec. 7, Zhongxiao E. Rd. & Ln. 415, Sec. 7, Zhongxiao E. Rd","nbcnt":"0","bemp":"36","act":"1"},{"iid":"69","sv":"1","sd":"20121219102000","vtyp":"1","sno":"0049","sna":"龍門廣場","sip":"192.168.4.52 ","tot":"52","sbi":"39","sarea":"大安區","mday":"20140105193809","lat":"25.040901","lng":"121.548252  ","ar":"忠孝東路/敦化南路(西南側廣場）","sareaen":"Daan Dist.","snaen":"Longmen Square(Testing)","aren":"Sec. 1, Dunhua S. Rd. & Ln. 236, Sec. 1, Dunhua S. Rd.","nbcnt":"1","bemp":"12","act":"1"},{"iid":"70","sv":"1","sd":"20121219102311","vtyp":"1","sno":"0050","sna":"民權運動公園","sip":"192.168.4.53","tot":"52","sbi":"35","sarea":"松山區","mday":"20140105193707","lat":"25.062002","lng":"121.560186","ar":"民權東路四段/新中街交叉口","sareaen":"Songshan Dist.","snaen":"MinQuan Park","aren":"The intersection of Sec. 4, Mincyuan E. Rd. & Xinzhong St.","nbcnt":"0","bemp":"17","act":"1"},{"iid":"71","sv":"1","sd":"20121231090803","vtyp":"1","sno":"0051","sna":"建國農安街口","sip":"192.168.4.54 ","tot":"44","sbi":"11","sarea":"中山區","mday":"20140105193819","lat":"25.065031","lng":"121.536775  ","ar":"建國北路/農安街口(中油旁邊空地)","sareaen":"Zhongshan Dist.","snaen":"Jianguo & Nongan Intersection","aren":"(Behind empty area of CPC coporation) Jianguo N. Rd. & Nong’an St.","nbcnt":"0","bemp":"33","act":"1"},{"iid":"72","sv":"1","sd":"20121231091320","vtyp":"1","sno":"0052","sna":"建國長春路口","sip":"192.168.4.55 ","tot":"30","sbi":"14","sarea":"中山區","mday":"20140105193824","lat":"25.054761","lng":"121.536925","ar":"建國北路/長春路口(北側)","sareaen":"Zhongshan Dist.","snaen":"Jianguo & Changchun Intersection","aren":"The N. side of Jianguo N. Rd. & Changchun Rd.","nbcnt":"0","bemp":"16","act":"1"},{"iid":"73","sv":"1","sd":"20121231091535","vtyp":"1","sno":"0053","sna":"八德市場","sip":"192.168.4.56 ","tot":"26","sbi":"9","sarea":"中山區","mday":"20140105193735","lat":"25.044781","lng":"121.536609","ar":"建國南路一段/市民大道交叉口(北側) ","sareaen":"Zhongshan Dist.","snaen":"Bade Market","aren":"The intersection of Sec.1, Jianguo S. Rd. & Civic Blvd.","nbcnt":"0","bemp":"17","act":"1"},{"iid":"74","sv":"1","sd":"20130111095018","vtyp":"1","sno":"0054","sna":"臺北市立圖書館(總館)","sip":"","tot":"30","sbi":"0","sarea":"大安區","mday":"20140105193823","lat":"25.028798","lng":"121.538073","ar":"建國南路二段/建國南路二段151巷(東北側)","sareaen":"Daan Dist.","snaen":"Taipei Public Library","aren":"The N.E. side of Sec. 2, Jianguo S. Rd. & Ln. 151, Sec. 2, Jianguo S. Rd.","nbcnt":"1","bemp":"28","act":"1"},{"iid":"75","sv":"1","sd":"20130111095239","vtyp":"1","sno":"0055","sna":"臺北田徑場","sip":"192.168.4.58","tot":"46","sbi":"5","sarea":"松山區","mday":"20140105193817","lat":"25.049505","lng":"121.549408","ar":"敦化北路3號","sareaen":"Songshan Dist.","snaen":"Taipei Stadium","aren":"No.3, Dunhua N. Rd.","nbcnt":"0","bemp":"41","act":"1"},{"iid":"76","sv":"1","sd":"20130111095451","vtyp":"1","sno":"0056","sna":"Y-17青少年育樂中心","sip":"192.168.4.59","tot":"42","sbi":"2","sarea":"中正區","mday":"20140105193819","lat":"25.038954","lng":"121.522334","ar":"林森南路/仁愛路一段路口(東北側)","sareaen":"Zhongzheng Dist.","snaen":"Y17 Youth Recreation Center","aren":"The N.E. side of Linsen S. Rd & Sec. 1, Ren’ai Rd.","nbcnt":"0","bemp":"28","act":"1"},{"iid":"77","sv":"1","sd":"20130201085924","vtyp":"1","sno":"0057","sna":"新生和平路口","sip":"","tot":"46","sbi":"13","sarea":"大安區","mday":"20140105193816","lat":"25.026217","lng":"121.53519","ar":"新生南路二段/和平東路二段(東北側)","sareaen":"Daan Dist.","snaen":"Xinsheng & Heping Intersection","aren":"The N.E. side of Sec. 2, Xinsheng S. Rd. & Sec. 2, Heping E. Rd","nbcnt":"0","bemp":"33","act":"1"},{"iid":"78","sv":"1","sd":"20130201090323","vtyp":"1","sno":"0058","sna":"捷運善導寺站(1號出口)","sip":"192.168.4.61","tot":"48","sbi":"3","sarea":"中正區","mday":"20140105193819","lat":"25.045267","lng":"121.522200 ","ar":"天津街/忠孝東路一段(東北側)","sareaen":"Zhongzheng Dist.","snaen":"MRT Shandao Temple Sta(Exit 1)","aren":"The N.E. side of Tianjin St. & Sec. 1, Zhongxiao E. Rd.","nbcnt":"0","bemp":"44","act":"1"},{"iid":"79","sv":"1","sd":"20130208103613","vtyp":"1","sno":"0059","sna":"林森公園","sip":"","tot":"32","sbi":"31","sarea":"中山區","mday":"20140105193810","lat":"25.052227","lng":"121.525805 ","ar":"林森北路/南京東路一段","sareaen":"Zhongshan Dist.","snaen":"Linsen Park","aren":"Linsen N. Rd. & Sec. 1, Nanjing E. Rd.","nbcnt":"0","bemp":"1","act":"1"},{"iid":"80","sv":"1","sd":"20130208103812","vtyp":"1","sno":"0060","sna":"中山行政中心","sip":"","tot":"30","sbi":"7","sarea":"中山區","mday":"20140105193729","lat":"25.064317","lng":"121.533487 ","ar":"松江路/農安街口","sareaen":"Zhongshan Dist.","snaen":"Zhongshan Dist. Admin. Office","aren":"Songjiang Rd. & Nong’an St.","nbcnt":"0","bemp":"23","act":"1"},{"iid":"81","sv":"1","sd":"20130304200547","vtyp":"1","sno":"0061","sna":"台灣科技大學","sip":"192.168.4.64","tot":"46","sbi":"3","sarea":"大安區","mday":"20140105193815","lat":"25.0131","lng":"121.539723 ","ar":"基隆路四段/基隆路四段73巷交叉口","sareaen":"Daan Dist.","snaen":"N.T.U.S.T","aren":"The intersection of Sec. 4, Keelung Rd. & Ln. 73, Sec. 4, Keelung Rd","nbcnt":"0","bemp":"41","act":"1"},{"iid":"82","sv":"1","sd":"20130304200723","vtyp":"1","sno":"0062","sna":"南昌公園","sip":"192.168.4.65","tot":"34","sbi":"27","sarea":"中正區","mday":"20140105193736","lat":"25.026827","lng":"121.520258","ar":"和平西路一段/南昌路","sareaen":"Zhongzheng Dist.","snaen":"Nanchang Park","aren":"Sec. 1, Heping W. Rd.& Nanchang Rd.","nbcnt":"0","bemp":"7","act":"1"},{"iid":"83","sv":"1","sd":"20130304201131","vtyp":"1","sno":"0063","sna":"仁愛醫院","sip":"192.168.4.66","tot":"36","sbi":"6","sarea":"大安區","mday":"20140105193813","lat":"25.037569","lng":"121.545632","ar":"大安路一段/仁愛路四段","sareaen":"Daan Dist.","snaen":"Taipei City Hospital Renai Branch","aren":"Da’an Rd. & Sec. 4, Sinyi Rd.","nbcnt":"0","bemp":"30","act":"1"},{"iid":"92","sv":"1","sd":"20130408163632","vtyp":"1","sno":"0064","sna":"國家圖書館","sip":"192.168.4.67","tot":"50","sbi":"2","sarea":"中正區","mday":"20140105193715","lat":"25.037773","lng":"121.517029","ar":"中山南路/貴陽街口(西南側)","sareaen":"Zhongzheng Dist.","snaen":"National Central Library","aren":"The S.W. side of Zhongshan S. Rd. & Guiyang St.","nbcnt":"0","bemp":"48","act":"1"},{"iid":"94","sv":"1","sd":"20130507090740","vtyp":"1","sno":"0065","sna":"青年公園3號出口","sip":"192.168.4.68","tot":"38","sbi":"3","sarea":"萬華區","mday":"20140105193731","lat":"25.022725","lng":"121.502708 ","ar":"青年路/青年路106巷(東側)","sareaen":"Wanhua Dist.","snaen":"Youth Park Exit 3","aren":"The E. side of Qingnian Rd. & Ln. 106, Qingnian Rd.","nbcnt":"0","bemp":"35","act":"1"},{"iid":"95","sv":"1","sd":"20130507091052","vtyp":"1","sno":"0066","sna":"師範大學公館校區","sip":"192.168.4.69","tot":"42","sbi":"20","sarea":"文山區","mday":"20140105193815","lat":"25.007528","lng":"121.537188 ","ar":"師大公館校區校門口(汀州路側)","sareaen":"Wenshan Dist.","snaen":"NTNU Gongguan Campus","aren":"The side of Tingzhou Rd. (National Taiwan Normal University- Gongguan Campus)","nbcnt":"0","bemp":"22","act":"1"},{"iid":"96","sv":"1","sd":"20130507091530","vtyp":"1","sno":"0067","sna":"捷運臺大醫院(4號出口)","sip":"","tot":"48","sbi":"8","sarea":"中正區","mday":"20140105193825","lat":"25.042973","lng":"121.516428","ar":"公園路/襄陽路(西南側)","sareaen":"Zhongzheng Dist.","snaen":"MRT Nat’l Taiwan U. Hospital Sta.(Exit 4)","aren":"The S.W. side of Gongyuan Rd. & Siangyang Rd.","nbcnt":"0","bemp":"40","act":"1"},{"iid":"97","sv":"1","sd":"20130507092136","vtyp":"1","sno":"0068","sna":"國興青年路口","sip":"192.168.4.71","tot":"36","sbi":"12","sarea":"萬華區","mday":"20140105193739","lat":"25.025865","lng":"121.506536","ar":"國興路/青年路(西南側)","sareaen":"Wanhua Dist.","snaen":"Guoxing & Qingnian Intersection","aren":"The S.W. side of Guoxing Rd. & Qingnian Rd.","nbcnt":"0","bemp":"24","act":"1"},{"iid":"98","sv":"1","sd":"20130509110341","vtyp":"1","sno":"0069","sna":"興豐公園","sip":"192.168.4.72","tot":"34","sbi":"9","sarea":"文山區","mday":"20140105193733","lat":"24.999837","lng":"121.547778","ar":"興隆路二段123巷/興隆路二段(西北側)","sareaen":"Wenshan Dist.","snaen":"Xingfong Park","aren":"The N.W. side of Ln. 123, Sec. 2, Xinglong Rd. & Sec. 2, Xinglong Rd.","nbcnt":"0","bemp":"25","act":"1"},{"iid":"99","sv":"1","sd":"20130510130141","vtyp":"1","sno":"0070","sna":"捷運台北101/世貿站","sip":"192.168.4.73","tot":"52","sbi":"1","sarea":"信義區","mday":"20140105193731","lat":"25.032752","lng":"121.561645","ar":"莊敬路/信義線五段(東南側)","sareaen":"Xinyi Dist.","snaen":"MRT Taipei 101/World Trade Center Sta.","aren":"The S.E. side of Zhuangjing Rd. & Sec. 5, Xinyi Rd.","nbcnt":"0","bemp":"51","act":"1"},{"iid":"100","sv":"1","sd":"20130516184739","vtyp":"1","sno":"0071","sna":"捷運信義安和站","sip":"","tot":"30","sbi":"11","sarea":"大安區","mday":"20140105193811","lat":"25.032985","lng":"121.554204","ar":"通化街/信義路四段(西南側)","sareaen":"Daan Dist.","snaen":"MRT Xinyi Anhe Sta.","aren":"The S.W. side of Tonghua St. & Sec. 4, Ren’ai Rd., Da’an Dist.","nbcnt":"0","bemp":"18","act":"1"},{"iid":"101","sv":"1","sd":"20130516184920","vtyp":"1","sno":"0072","sna":"新生長安路口","sip":"","tot":"42","sbi":"12","sarea":"中山區","mday":"20140105193818","lat":"25.048611","lng":"121.529346","ar":"新生北路一段/長安東路二段交叉口(北側)","sareaen":"Zhongshan Dist.","snaen":"Xinsheng & Changan Intersection","aren":"The intersection of Sec. 1, Xinsheng N. Rd. & Sec. 2, Chang’an E. Rd.","nbcnt":"0","bemp":"30","act":"1"},{"iid":"102","sv":"1","sd":"20130516185058","vtyp":"1","sno":"0073","sna":"酒泉延平路口","sip":"","tot":"32","sbi":"23","sarea":"大同區","mday":"20140105193823","lat":"25.072228","lng":"121.510195","ar":"延平北路四段/酒泉街(西北側)","sareaen":"Datong Dist.","snaen":"Jiuquan & Yanping Intersection","aren":"The N.W. side of Sec. 4, Yanping N. Rd. & Jiuquan St.","nbcnt":"0","bemp":"9","act":"1"},{"iid":"103","sv":"1","sd":"20130523181138","vtyp":"1","sno":"0074","sna":"信義連雲街口","sip":"","tot":"40","sbi":"14","sarea":"中正區","mday":"20140105193730","lat":"25.033817","lng":"121.530547","ar":"信義路二段/連雲街(東北側)","sareaen":"Zhongzheng Dist.","snaen":"Xinyi & Lianyun intersection","aren":"The N.S. side of Lianyun St. & Sec. 2, Xinyi Rd.","nbcnt":"0","bemp":"26","act":"1"},{"iid":"104","sv":"1","sd":"20130619203136","vtyp":"1","sno":"0075","sna":"基隆光復路口","sip":"","tot":"30","sbi":"28","sarea":"信義區","mday":"20140105193807","lat":"25.030055","lng":"121.557841","ar":"基隆路二段/光復南路(東北側)","sareaen":"Xinyi Dist.","snaen":"Keelung & Guangfu Intersection","aren":"The intersection of Sec. 2, Keelung Rd. & Guangfu S. Rd.","nbcnt":"1","bemp":"1","act":"1"},{"iid":"105","sv":"1","sd":"20130619203335","vtyp":"1","sno":"0076","sna":"新生長春路口","sip":"","tot":"36","sbi":"19","sarea":"中山區","mday":"20140105193821","lat":"25.056387","lng":"121.527522","ar":"新生北路二段/新生北路二段68巷交叉口(新生橋下)","sareaen":"Zhongshan Dist.","snaen":"Xinsheng & Changchun Intersection","aren":"Under the bridge- the intersection of Sec. 2, Xinsheng N. Rd. & Ln. 68, Sec. 2, Xinsheng N. Rd.","nbcnt":"0","bemp":"17","act":"1"},{"iid":"106","sv":"1","sd":"20130621144511","vtyp":"1","sno":"0077","sna":"民生活動中心","sip":"10.7.0.9","tot":"32","sbi":"32","sarea":"松山區","mday":"20140105193758","lat":"25.059147","lng":"121.56297","ar":"民生東路五段/三民路口(西北側)","sareaen":"Songshan Dist.","snaen":"Minsheng Activity Center","aren":"The N.W. side of Sec. 5, Minsheng E. Rd. & Sanmin Rd.","nbcnt":"0","bemp":"0","act":"1"},{"iid":"107","sv":"1","sd":"20130704102459","vtyp":"1","sno":"0078","sna":"捷運圓山站(2號出口)","sip":"","tot":"52","sbi":"49","sarea":"大同區","mday":"20140105193808","lat":"25.071824","lng":"121.519287","ar":"承德路三段/庫倫街(東南側)","sareaen":"Datong Dist.","snaen":"MRT Yuanshan Sta. (Exit 2)","aren":"The S.E. side of Sec. 3, Chengde Rd. & Kulun St.","nbcnt":"0","bemp":"3","act":"1"},{"iid":"108","sv":"1","sd":"20130704102651","vtyp":"1","sno":"0079","sna":"捷運民權西路站(3號出口)","sip":"","tot":"50","sbi":"37","sarea":"大同區","mday":"20140105193825","lat":"25.061285","lng":"121.520205","ar":"民權西路70巷37號對面","sareaen":"Datong Dist.","snaen":"MRT Minquan W.Rd. Sta.(Exit 3)","aren":"The opposite of No.37, Ln. 70, Minquan W. Rd.","nbcnt":"0","bemp":"13","act":"1"},{"iid":"111","sv":"1","sd":"20130704180426","vtyp":"1","sno":"0080","sna":"華江高中","sip":"","tot":"44","sbi":"34","sarea":"萬華區","mday":"20140105193816","lat":"25.02751","lng":"121.495869","ar":"東園街/東園街35巷(東北側)","sareaen":"Wanhua Dist.","snaen":"Huajiang High School","aren":"The N.E. side of Dongyuan St. & Ln. 35, Dongyuan St.","nbcnt":"0","bemp":"10","act":"1"},{"iid":"109","sv":"1","sd":"20130704180142","vtyp":"1","sno":"0081","sna":"捷運台電大樓站(2號出口)","sip":"","tot":"40","sbi":"13","sarea":"大安區","mday":"20140105193814","lat":"25.020547","lng":"121.528552","ar":"羅斯福路/辛亥路交叉口(古亭國小前)","sareaen":"Daan Dist.","snaen":"MRT Taipower Building Sta. (Exit 2)","aren":"The intersection of Roosevelt Rd. & Xinhai Rd. (Gu Ting Elementary School) ","nbcnt":"0","bemp":"27","act":"1"},{"iid":"112","sv":"1","sd":"20130709212101","vtyp":"1","sno":"0082","sna":"捷運西門站(3號出口)","sip":"","tot":"60","sbi":"37","sarea":"中正區","mday":"20140105193807","lat":"25.041778","lng":"121.508693 ","ar":"中華路一段/寶慶路(東南側)","sareaen":"Zhongzheng Dist.","snaen":"MRT Ximen Sta.(Exit 3)","aren":"The S.E. side of Sec. 1, Zhonghua Rd. & Baoqing Rd.","nbcnt":"0","bemp":"23","act":"1"},{"iid":"113","sv":"1","sd":"20130710094448","vtyp":"1","sno":"0083","sna":"捷運大安森林公園站","sip":"","tot":"74","sbi":"1","sarea":"大安區","mday":"20140105193729","lat":"25.033156","lng":"121.535161","ar":"信義路三段31巷/信義路三段(南側)","sareaen":"Daan Dist.","snaen":"MRT Daan Park Sta.","aren":"The S. side of Ln. 31, Sec. 3, Xinyi Rd. & Sec. 3, Xinyi Rd.","nbcnt":"0","bemp":"73","act":"1"},{"iid":"114","sv":"1","sd":"20130710094639","vtyp":"1","sno":"0084","sna":"復華花園新城","sip":"","tot":"38","sbi":"3","sarea":"萬華區","mday":"20140105193826","lat":"25.029705","lng":"121.502899","ar":"西藏路115號/西藏路(東南側)","sareaen":"Wanhua Dist.","snaen":"Fuhua Garden New Village(City)","aren":"The S.E. side of No.115, Xizang Rd. & Xizang Rd.","nbcnt":"0","bemp":"35","act":"1"},{"iid":"115","sv":"1","sd":"20130715183258","vtyp":"1","sno":"0085","sna":"信義敦化路口","sip":"","tot":"46","sbi":"11","sarea":"大安區","mday":"20140105193820","lat":"25.033362","lng":"121.54911","ar":"信義路四段/敦化南路一段(東北側)","sareaen":"Daan Dist.","snaen":"Xinyi & Dunhua Intersection","aren":"The N.E. side of Sec. 4, Xinyi Rd. & Sec. 1, Dunhua S. Rd.","nbcnt":"0","bemp":"35","act":"1"},{"iid":"116","sv":"1","sd":"20130716195638","vtyp":"1","sno":"0086","sna":"民權復興路口","sip":"","tot":"46","sbi":"15","sarea":"松山區","mday":"20140105193819","lat":"25.062344","lng":"121.545138","ar":"復興北路/民權東路三段(東北側)","sareaen":"Songshan Dist.","snaen":"Minquan & Fuxing Intersection","aren":"The N.E. side of Fuxing N. Rd. & Sec. 3, Minquan E. Rd.","nbcnt":"0","bemp":"31","act":"1"},{"iid":"117","sv":"1","sd":"20130716195812","vtyp":"1","sno":"0087","sna":"捷運大安站","sip":"","tot":"58","sbi":"4","sarea":"大安區","mday":"20140105193810","lat":"25.033078","lng":"121.543057","ar":"復興南路/信義路三段(西南側)","sareaen":"Daan Dist.","snaen":"MRT Daan Sta.","aren":"The S.W. side of Fuxing S. Rd. & Sec. 3 Xinyi Rd.","nbcnt":"0","bemp":"54","act":"1"},{"iid":"118","sv":"1","sd":"20130717140002","vtyp":"1","sno":"0088","sna":"捷運象山站","sip":"","tot":"58","sbi":"0","sarea":"信義區","mday":"20140105193720","lat":"25.032835","lng":"121.571274","ar":"信義路五段/信義路五段91巷(西北側)","sareaen":"Xinyi Dist.","snaen":"MRT Xiangshan Sta.","aren":"The N.W. side of Sec. 5, Xinyi Rd. & Ln. 91, Sec. 5, Xinyi Rd.","nbcnt":"0","bemp":"58","act":"1"},{"iid":"119","sv":"1","sd":"20130717162023","vtyp":"1","sno":"0089","sna":"和平重慶路口","sip":"","tot":"44","sbi":"19","sarea":"中正區","mday":"20140105193813","lat":"25.027323","lng":"121.516385","ar":"重慶南路三段/和平西路一段(東北側)","sareaen":"Zhongzheng Dist.","snaen":"Heping Chongqing Intersection","aren":"The N.E. side of Sec. 3, Chongqing S. Rd. & Sec. 1, Heping W. Rd.","nbcnt":"0","bemp":"25","act":"1"},{"iid":"120","sv":"1","sd":"20130717162303","vtyp":"1","sno":"0090","sna":"老松國小","sip":"","tot":"44","sbi":"15","sarea":"萬華區","mday":"20140105193823","lat":"25.037783","lng":"121.501708","ar":"康定路/桂林路(東南側)","sareaen":"Wanhua Dist.","snaen":"Laosong Elementary School","aren":"The S.E. side of Kangding Rd. & Guilin Rd.","nbcnt":"0","bemp":"29","act":"1"},{"iid":"121","sv":"1","sd":"20130717162439","vtyp":"1","sno":"0091","sna":"市立美術館","sip":"","tot":"36","sbi":"33","sarea":"中山區","mday":"20140105193731","lat":"25.070629","lng":"121.523268","ar":"中山北路三段/酒泉街(西南側)","sareaen":"Zhongshan Dist.","snaen":"Taipei Fine Arts Museum","aren":"The S.W. side of Sec. 3, Zhongshan N. Rd. & Jiuquan St.","nbcnt":"0","bemp":"3","act":"1"},{"iid":"122","sv":"1","sd":"20130719110707","vtyp":"1","sno":"0092","sna":"開封西寧路口","sip":"","tot":"42","sbi":"1","sarea":"萬華區","mday":"20140105193816","lat":"25.046618","lng":"121.507169","ar":"開封街二段/西寧南路(東北側)","sareaen":"Wanhua Dist.","snaen":"Kaifong & Xining Intersection","aren":"The N.E. side of Sec. 2, Kaifeng St. & Xining S. Rd.","nbcnt":"0","bemp":"41","act":"1"},{"iid":"123","sv":"1","sd":"20130719110823","vtyp":"1","sno":"0093","sna":"吳興公車總站","sip":"","tot":"36","sbi":"31","sarea":"信義區","mday":"20140105193733","lat":"25.023877","lng":"121.569836","ar":"松仁路/吳興街交叉口","sareaen":"Xinyi Dist.","snaen":"Wu Xing Bus Station.","aren":"The intersection of Songren Rd. & Wuxing St.","nbcnt":"0","bemp":"5","act":"1"},{"iid":"124","sv":"1","sd":"20130719191809","vtyp":"1","sno":"0094","sna":"捷運景美站","sip":"","tot":"52","sbi":"26","sarea":"文山區","mday":"20140105193816","lat":"24.993254","lng":"121.541059","ar":"羅斯福路六段/景中街交叉口(東北側)","sareaen":"Wenshan Dist.","snaen":"MRT Jingmei Sta.","aren":"The intersectionof Sec. 6, Roosevelt Rd. & Jingzhong St.","nbcnt":"1","bemp":"25","act":"1"},{"iid":"125","sv":"1","sd":"20130729155220","vtyp":"1","sno":"0095","sna":"東園國小","sip":"","tot":"36","sbi":"24","sarea":"萬華區","mday":"20140105193811","lat":"25.023393","lng":"121.497679","ar":"東園街/萬大路344巷(東南側)","sareaen":"Wanhua Dist.","snaen":"Dongyuan Elementary School","aren":"The S.E. side of Dongyuan St. & Ln. 344, Wanda Rd.","nbcnt":"0","bemp":"12","act":"1"},{"iid":"126","sv":"1","sd":"20130729155552","vtyp":"1","sno":"0096","sna":"三民公園","sip":"","tot":"30","sbi":"30","sarea":"松山區","mday":"20140105193819","lat":"25.061567","lng":"121.566558","ar":"撫遠街/富錦街(東南側)","sareaen":"Songshan Dist.","snaen":"Sanmin Park","aren":"The S.E. side of Fuyuan St. & Fujin St.","nbcnt":"0","bemp":"0","act":"1"},{"iid":"127","sv":"1","sd":"20130729155956","vtyp":"1","sno":"0097","sna":"捷運劍潭站(2號出口)","sip":"","tot":"52","sbi":"36","sarea":"士林區","mday":"20140105193813","lat":"25.082825","lng":"121.524721","ar":"基河路18號對面","sareaen":"Shilin Dist.","snaen":"MRT Jiantan Sta.(EXIT. 2)","aren":"The opposite of No.18, Jihe Rd.","nbcnt":"0","bemp":"16","act":"1"},{"iid":"128","sv":"1","sd":"20130729160122","vtyp":"1","sno":"0098","sna":"羅斯福景隆街口","sip":"","tot":"48","sbi":"44","sarea":"文山區","mday":"20140105193734","lat":"24.999378","lng":"121.540197","ar":"羅斯福路六段/景隆街交叉口(東南側)","sareaen":"Wenshan Dist.","snaen":"Roosevelt & Jinglong Intersection","aren":"The intersection of Sec. 6, Roosevelt Rd. & Jinglong St. (the S.E. side)","nbcnt":"0","bemp":"4","act":"1"},{"iid":"129","sv":"1","sd":"20130729160229","vtyp":"1","sno":"0099","sna":"捷運雙連站(2號出口)","sip":"","tot":"42","sbi":"19","sarea":"大同區","mday":"20140105193815","lat":"25.057866","lng":"121.520711","ar":"民生西路/萬全街(東北側)","sareaen":"Datong Dist.","snaen":"MRT Shuanglian Sta. (Exit 2)","aren":"The N.E. side of Minsheng W. Rd. & Wanquan St.","nbcnt":"0","bemp":"23","act":"1"},{"iid":"130","sv":"1","sd":"20130729160345","vtyp":"1","sno":"0100","sna":"金山市民路口","sip":"","tot":"40","sbi":"3","sarea":"中正區","mday":"20140105193820","lat":"25.045753","lng":"121.530697","ar":"金山北路/市民大道三段(南側)","sareaen":"Zhongzheng Dist.","snaen":"Jinshen & Civic Blvd. Intersection","aren":"The S. side of Jinshan N. Rd. & Sec. 3, Civic Blvd.","nbcnt":"0","bemp":"37","act":"1"},{"iid":"131","sv":"1","sd":"20130729160545","vtyp":"1","sno":"0101","sna":"華山文創園區","sip":"","tot":"50","sbi":"0","sarea":"中正區","mday":"20140105193820","lat":"25.043668","lng":"121.528487","ar":"忠孝東路二段41號前","sareaen":"Zhongzheng Dist.","snaen":"Huashan 1914‧Creative Park","aren":"Front of No.41, Sec. 2, Zhongxiao E. Rd.","nbcnt":"0","bemp":"50","act":"1"},{"iid":"132","sv":"1","sd":"20130729160805","vtyp":"1","sno":"0102","sna":"臺北市客家文化主題公園","sip":"","tot":"32","sbi":"29","sarea":"中正區","mday":"20140105193826","lat":"25.02043","lng":"121.525322","ar":"師大路/汀州路交叉口","sareaen":"Zhongzheng Dist.","snaen":"Taipei City Hakka Cultural Park","aren":"The intersection of Shida Rd. & Tingzhou Rd.","nbcnt":"0","bemp":"3","act":"1"},{"iid":"133","sv":"1","sd":"20130729160906","vtyp":"1","sno":"0103","sna":"萬大興寧街口","sip":"","tot":"52","sbi":"4","sarea":"萬華區","mday":"20140105193728","lat":"25.031974","lng":"121.500474","ar":"萬大路/興寧街(西南側)","sareaen":"Wanhua Dist.","snaen":"Wanda & Xingning Intersection","aren":"The S.W. side of Wanda Rd. & Xingning St.","nbcnt":"0","bemp":"48","act":"1"},{"iid":"134","sv":"1","sd":"20130729161023","vtyp":"1","sno":"0104","sna":"台北花木批發市場","sip":"","tot":"38","sbi":"12","sarea":"文山區","mday":"20140105193726","lat":"25.004023","lng":"121.54074","ar":"萬盛街/興隆路一段(西北側)","sareaen":"Wenshan Dist.","snaen":"Taipei Pot Plant Auction","aren":"The N.W. side of Wansheng St. Sec. 1, Xinglong Rd.","nbcnt":"0","bemp":"26","act":"1"},{"iid":"135","sv":"1","sd":"20130729161141","vtyp":"1","sno":"0105","sna":"峨嵋停車場","sip":"","tot":"42","sbi":"0","sarea":"萬華區","mday":"20140105193809","lat":"25.044412","lng":"121.505409","ar":"昆明街/西寧南路50巷(東南側)","sareaen":"Wanhua Dist.","snaen":"Emei Parking Lot","aren":"The S.E. side of Kunming St. & Ln. 50, Xining S. Rd. ","nbcnt":"0","bemp":"42","act":"1"},{"iid":"136","sv":"1","sd":"20130729161238","vtyp":"1","sno":"0106","sna":"西園艋舺路口","sip":"","tot":"44","sbi":"6","sarea":"萬華區","mday":"20140105193826","lat":"25.032932","lng":"121.497674","ar":"西園路二段/艋舺大道(西南側)","sareaen":"Wanhua Dist.","snaen":"Xiyuan & Bangka Intersection","aren":"The S.W. side of Sec. 2, Xiyuan Rd. & Bangka Blvd.","nbcnt":"0","bemp":"38","act":"1"},{"iid":"137","sv":"1","sd":"20130729161331","vtyp":"1","sno":"0107","sna":"捷運小南門站(1號出口)","sip":"","tot":"54","sbi":"2","sarea":"中正區","mday":"20140105193733","lat":"25.036402","lng":"121.509422","ar":"博愛路/愛國西路交叉口(西北側)","sareaen":"Zhongzheng Dist.","snaen":"MRT Xiaonanmen Sta. (Exit 1)","aren":"The intersection of Bo’ai Rd. & Aiguo W. Rd.","nbcnt":"0","bemp":"52","act":"1"},{"iid":"139","sv":"1","sd":"20130809093136","vtyp":"1","sno":"0108","sna":"臺北孔廟","sip":"","tot":"32","sbi":"8","sarea":"大同區","mday":"20140105193821","lat":"25.073306","lng":"121.515843","ar":"哈密街59巷/哈密街(東北側)","sareaen":"Datong Dist.","snaen":"Taipei Confucius Temple","aren":"The N.E. side of Ln. 59, Hami St. & Hami St.","nbcnt":"0","bemp":"24","act":"1"},{"iid":"140","sv":"1","sd":"20130809093709","vtyp":"1","sno":"0109","sna":"林安泰古厝","sip":"","tot":"36","sbi":"3","sarea":"中山區","mday":"20140105193824","lat":"25.071606","lng":"121.530805","ar":"吉林路/民族東路(北側)","sareaen":"Zhongshan Dist.","snaen":"Lin An-tai Historical House","aren":"The N. side of Jilin Rd. & Minzu E. Rd.","nbcnt":"1","bemp":"32","act":"1"},{"iid":"142","sv":"1","sd":"20130819094543","vtyp":"1","sno":"0110","sna":"文湖國小","sip":"","tot":"44","sbi":"18","sarea":"內湖區","mday":"20140105193824","lat":"25.086376","lng":"121.560888","ar":"文湖街21巷/文湖街(東北側)","sareaen":"Neihu Dist.","snaen":"Wenhu Elementary School","aren":"The N.E. side of Ln. 21, Wenhu St. & Wenhu St.","nbcnt":"0","bemp":"26","act":"1"},{"iid":"143","sv":"1","sd":"20130822113711","vtyp":"1","sno":"0111","sna":"捷運忠孝復興站(2號出口)","sip":"","tot":"54","sbi":"30","sarea":"大安區","mday":"20140105193728","lat":"25.040184","lng":"121.543497","ar":"復興南路一段/仁愛路三段123巷13弄(西北側)","sareaen":"Daan Dist.","snaen":"MRT Zhongxiao Fuxing Sta.(Exit. 2)","aren":"The N.W. side of Sec. 1, Fuxing S. Rd. & Aly. 13, Ln. 123, Sec. 3, Ren’ai Rd.","nbcnt":"0","bemp":"23","act":"1"},{"iid":"145","sv":"1","sd":"20131001183941","vtyp":"1","sno":"0112","sna":"捷運新北投站","sip":"","tot":"48","sbi":"1","sarea":"北投區","mday":"20140105193728","lat":"25.137456","lng":"121.503124","ar":"大業路/中和街交叉口","sareaen":"Beitou Dist.","snaen":"MRT Xinbeitou Sta.","aren":"Daye Rd. & Zhonghe St.  Intersection","nbcnt":"0","bemp":"47","act":"1"},{"iid":"188","sv":"1","sd":"20000101000000","vtyp":"1","sno":"0113","sna":"仁愛逸仙路口","sip":"","tot":"38","sbi":"13","sarea":"信義區","mday":"20140105193810","lat":"25.037724","lng":"121.561178","ar":"仁愛路四段/逸仙路(西北側)","sareaen":"Xinyi Dist.","snaen":"Renai & Yixian Intersection","aren":"Sec. 4, Ren’ai Rd. & Yixian Rd.","nbcnt":"0","bemp":"25","act":"1"},{"iid":"147","sv":"1","sd":"20131001184326","vtyp":"1","sno":"0114","sna":"蘭雅公園","sip":"","tot":"30","sbi":"22","sarea":"士林區","mday":"20140105193807","lat":"25.109908","lng":"121.530386","ar":"忠誠路二段/忠誠路二段40巷(西南側)","sareaen":"Shilin Dist.","snaen":"Lanya Park","aren":"Sec. 2, Zhongcheng Rd. & Ln. 40, Sec. 2, Zhongcheng Rd.","nbcnt":"0","bemp":"8","act":"1"},{"iid":"148","sv":"1","sd":"20131003194227","vtyp":"1","sno":"0115","sna":"臺北轉運站","sip":"","tot":"68","sbi":"12","sarea":"中正區","mday":"20140105193826","lat":"25.048222","lng":"121.520526","ar":"中山北路一段/市民大道一段(西北側)","sareaen":"Zhongzheng Dist.","snaen":"Taipei Bus Sta.","aren":"Sec. 1, Zhongshan N. Rd. & Sec. 1, Civic Blvd.","nbcnt":"0","bemp":"56","act":"1"},{"iid":"149","sv":"1","sd":"20131003195156","vtyp":"1","sno":"0116","sna":"福林公園","sip":"","tot":"44","sbi":"31","sarea":"士林區","mday":"20140105193811","lat":"25.096122","lng":"121.530215","ar":"志成街/中正路(南側)","sareaen":"Shilin Dist.","snaen":"Zhicheng St. & Zhongzheng Rd.","aren":"Zhicheng St. & Zhongzheng Rd.","nbcnt":"0","bemp":"12","act":"1"},{"iid":"150","sv":"1","sd":"20131007110204","vtyp":"1","sno":"0117","sna":"捷運北投站","sip":"","tot":"58","sbi":"47","sarea":"北投區","mday":"20140105193730","lat":"25.132581","lng":"121.498618","ar":"光明路2 巷/光明路交叉口","sareaen":"Beitou Dist.","snaen":"MRT Beitou Sta.","aren":"Ln. 2, Guangming Rd. & Guangming Rd.  Intersection","nbcnt":"0","bemp":"11","act":"1"},{"iid":"151","sv":"1","sd":"20131007110327","vtyp":"1","sno":"0118","sna":"大業大同街口","sip":"","tot":"36","sbi":"14","sarea":"北投區","mday":"20140105193826","lat":"25.136929","lng":"121.499152","ar":"大業路/大同街口","sareaen":"Beitou Dist.","snaen":"Daye & Datong Intersection","aren":"Daye Rd. & Datong St.  Intersection","nbcnt":"0","bemp":"22","act":"1"},{"iid":"152","sv":"1","sd":"20131007110507","vtyp":"1","sno":"0119","sna":"捷運劍南路站(2號出口)","sip":"","tot":"56","sbi":"22","sarea":"中山區","mday":"20140105193736","lat":"25.08418","lng":"121.555116","ar":"敬業二路/植福路(東北側)","sareaen":"Zhongshan Dist.","snaen":"MRT Jiannan Rd. Sta.(Exit 2)","aren":"Jingye 2nd Rd. & Zhifu Rd.","nbcnt":"0","bemp":"34","act":"1"},{"iid":"153","sv":"1","sd":"20131007190221","vtyp":"1","sno":"0120","sna":"捷運龍山寺站(1號出口)","sip":"","tot":"46","sbi":"21","sarea":"萬華區","mday":"20140105193736","lat":"25.035479","lng":"121.50026","ar":"和平西路三段/和平西路三段109巷(西北側)","sareaen":"Wanhua Dist.","snaen":"MRT Longshan Temple Sta. (Exit. 1)","aren":"Sec. 3, Heping W. Rd. & Ln. 109, Sec. 3, Heping W. Rd.","nbcnt":"0","bemp":"25","act":"1"},{"iid":"155","sv":"1","sd":"20131014205048","vtyp":"1","sno":"0121","sna":"龍江南京路口","sip":"","tot":"66","sbi":"3","sarea":"中山區","mday":"20140105193815","lat":"25.05298","lng":"121.540568","ar":"龍江路110號對面停車場","sareaen":"Zhongshan Dist.","snaen":"Longjiang & Nanjing Intersection","aren":"No.100, Longjiang Rd.","nbcnt":"0","bemp":"62","act":"1"},{"iid":"157","sv":"1","sd":"20131016120358","vtyp":"1","sno":"0122","sna":"捷運港墘站(2號出口)","sip":"","tot":"50","sbi":"20","sarea":"內湖區","mday":"20140105193818","lat":"25.079681","lng":"121.575458","ar":"內湖路一段/港墘路(東南側)","sareaen":"Neihu Dist.","snaen":"MRT Gangqian Sta. (Exit 2)","aren":"","nbcnt":"0","bemp":"30","act":"1"},{"iid":"158","sv":"1","sd":"20131016123650","vtyp":"1","sno":"0123","sna":"天母運動公園","sip":"","tot":"44","sbi":"13","sarea":"士林區","mday":"20140105193732","lat":"25.116325","lng":"121.534136","ar":"忠誠路二段/忠誠路二段207巷(東南側)","sareaen":"Shilin Dist.","snaen":"Tienmu Sports Park","aren":"Sec.2,Zhongcheng Rd./Ln.207,Sec.2,Zhongcheng Rd.","nbcnt":"0","bemp":"31","act":"1"},{"iid":"160","sv":"1","sd":"20131023182911","vtyp":"1","sno":"0124","sna":"振華公園","sip":"","tot":"36","sbi":"5","sarea":"北投區","mday":"20140105193820","lat":"25.115863","lng":"121.518163","ar":"振華街36號對面","sareaen":"Beitou Dist.","snaen":"Zenhua Park","aren":"No.36, Zhenhua St.","nbcnt":"0","bemp":"31","act":"1"},{"iid":"161","sv":"1","sd":"20131023183035","vtyp":"1","sno":"0125","sna":"華西公園","sip":"","tot":"30","sbi":"13","sarea":"萬華區","mday":"20140105193814","lat":"25.038609","lng":"121.498495","ar":"華西街/桂林路(東北側)","sareaen":"Wanhua Dist.","snaen":"Huaxi Park","aren":"Huaxi St. & Guilin Rd.","nbcnt":"0","bemp":"17","act":"1"},{"iid":"165","sv":"1","sd":"20131114093852","vtyp":"1","sno":"0128","sna":"成功國宅","sip":"","tot":"36","sbi":"11","sarea":"大安區","mday":"20140105192609","lat":"25.026808","lng":"121.546726","ar":"四維路198巷/和平東路三段1巷","sareaen":"Daan Dist.","snaen":"Chengong Public Housing","aren":"Ln. 198, Siwei Rd./Ln. 1, Sec. 3, Heping E. Rd","nbcnt":"2","bemp":"23","act":"1"},{"iid":"167","sv":"1","sd":"20131120191945","vtyp":"1","sno":"0129","sna":"捷運文德站(2號出口)","sip":"","tot":"50","sbi":"22","sarea":"內湖區","mday":"20140105193813","lat":"25.078292","lng":"121.585264","ar":"文德路220巷/文德路(西南側)","sareaen":"Neihu Dist.","snaen":"MRT Wende Sta. (Exit 2)","aren":"Ln. 220, Wende Rd./Wende Rd.","nbcnt":"0","bemp":"28","act":"1"},{"iid":"168","sv":"1","sd":"20131120192101","vtyp":"1","sno":"0130","sna":"羅斯福寧波東街口","sip":"","tot":"26","sbi":"5","sarea":"中正區","mday":"20140105193807","lat":"25.031445","lng":"121.519411","ar":"羅斯福路一段/寧波東街(東南側)","sareaen":"Zhongzheng Dist.","snaen":"Roosevelt & Ningbo E. St. Intersection","aren":"Sec. 1, Roosevelt Rd. & Ningbo E. St.","nbcnt":"0","bemp":"21","act":"1"},{"iid":"169","sv":"1","sd":"20131127115629","vtyp":"1","sno":"0131","sna":"洲子二號公園","sip":"","tot":"34","sbi":"14","sarea":"內湖區","mday":"20140105193819","lat":"25.079322","lng":"121.568688","ar":"瑞光路500號對面","sareaen":"Neihu Dist.","snaen":"Zhouzhi Park No.2","aren":"Opposite to the parking space No.500, Ruiguang Rd.","nbcnt":"0","bemp":"20","act":"1"},{"iid":"173","sv":"1","sd":"20131211192233","vtyp":"1","sno":"0132","sna":"羅斯福新生南路口","sip":"","tot":"88","sbi":"88","sarea":"大安區","mday":"20140105193734","lat":"25.01603085","lng":"121.5331757","ar":"羅斯福路四段/新生南路三段交叉口","sareaen":"Daan Dist.","snaen":"@Roosevelt & Xinsheng S. Intersection","aren":"Sec. 4, Roosevelt Rd./Sec. 3, Xinsheng S. Rd.","nbcnt":"0","bemp":"0","act":"1"},{"iid":"174","sv":"1","sd":"20131217085155","vtyp":"1","sno":"0133","sna":"蘭興公園","sip":"","tot":"40","sbi":"26","sarea":"士林區","mday":"20140105193820","lat":"25.111839","lng":"121.525888","ar":"中山北路六段/士東路(西北側)","sareaen":"Shilin Dist.","snaen":"@Lanxing Park","aren":"Sec.6, Zhongshan N. Rd / Shidong Rd","nbcnt":"1","bemp":"13","act":"1"},{"iid":"175","sv":"1","sd":"20131217085353","vtyp":"1","sno":"0134","sna":"捷運芝山站(2號出口)","sip":"","tot":"64","sbi":"1","sarea":"士林區","mday":"20140105193818","lat":"25.10336","lng":"121.522629","ar":"福華路/福華路162巷(東南側)","sareaen":"Shilin Dist.","snaen":"MRT Zhishan Sta.(Exit 2)","aren":"Fuhua Rd. / Ln. 162, Fuhua Rd.","nbcnt":"0","bemp":"61","act":"1"},{"iid":"176","sv":"1","sd":"20131217203111","vtyp":"1","sno":"0135","sna":"捷運石牌站(2號出口)","sip":"","tot":"54","sbi":"35","sarea":"北投區","mday":"20140105193815","lat":"25.114513","lng":"121.515677","ar":"東華街一段/裕民二路(西側)\t","sareaen":"Beitou Dist.","snaen":"@MRT Shipai Sta. (Exit 2)","aren":"Sec. 1, Donghua St. / Yumin 2nd Rd.","nbcnt":"1","bemp":"18","act":"1"},{"iid":"177","sv":"1","sd":"20131217203556","vtyp":"1","sno":"0136","sna":"國立臺北護理健康大學","sip":"","tot":"30","sbi":"8","sarea":"北投區","mday":"20140105193822","lat":"25.118049","lng":"121.517512","ar":"石牌路二段130巷/石牌路二段(東南側)","sareaen":"Beitou Dist.","snaen":"@NTUNHS","aren":"Ln. 130, Sec. 2, Shipai Rd. / Sec. 2, Shipai Rd.","nbcnt":"0","bemp":"22","act":"1"},{"iid":"178","sv":"1","sd":"20131223134159","vtyp":"1","sno":"0137","sna":"國防大學","sip":"","tot":"46","sbi":"35","sarea":"北投區","mday":"20140105193808","lat":"25.137976","lng":"121.493066","ar":"中央北路二段/豐年路二段交叉口","sareaen":"Beitou Dist.","snaen":"Nat’l Defense U.","aren":"Sec. 2, Zhongyang N. Rd. / Sec. 2, Fengnian Rd.","nbcnt":"3","bemp":"8","act":"1"},{"iid":"179","sv":"1","sd":"20131226100026","vtyp":"1","sno":"0138","sna":"捷運永春站(2號出口)","sip":"","tot":"30","sbi":"1","sarea":"信義區","mday":"20140105193812","lat":"25.040558","lng":"121.575372","ar":"忠孝東路五段420號旁(東側巷道上)","sareaen":"Xinyi Dist.","snaen":"MRT Yongchun Sta. (Exit 2)\t","aren":"No.420, Sec. 5, Zhongxiao E. Rd.","nbcnt":"0","bemp":"29","act":"1"},{"iid":"180","sv":"1","sd":"20131226100109","vtyp":"1","sno":"0139","sna":"永樂市場","sip":"","tot":"30","sbi":"6","sarea":"大同區","mday":"20140105193734","lat":"25.054501","lng":"121.510549","ar":"民樂街/南京西路233巷(西北側)","sareaen":"Datong Dist.","snaen":"Yongle Market","aren":"Minle St., Datong Dist./Ln. 233, Nanjing W. Rd.","nbcnt":"0","bemp":"24","act":"1"},{"iid":"186","sv":"1","sd":"20131230142754","vtyp":"1","sno":"0501","sna":"大鵬華城","sip":"","tot":"38","sbi":"14","sarea":"新店區","mday":"20140105193812","lat":"24.99116","lng":"121.53398","ar":"新北市新店區中正路700巷3號","sareaen":"Xindian Dist.","snaen":"Dapeng Community","aren":"No. 3, Lane 700 Chung Cheng Road, Xindian District","nbcnt":"0","bemp":"24","act":"1"}]}