<markers>
<marker name="捷運市政府站(3號出口)" address="忠孝東路/松仁路(東南側)" nameen="MRT Taipei City Hall Stataion(Exit 3)-2" addressen="The S.W. side of Road Zhongxiao East Road & Road Chung Yan." lat="25.0408578889" lng="121.567904444" tot="28" sus="150" distance="" mday="01/07 14:28:14" icon_type="2" qqq="180"/>
<marker name="捷運國父紀念館站" address="捷運國父紀念館站(3號出口) " nameen="MRT S.Y.S Memorial Hall Stataion" addressen="The S.E. side of Road Zhongxiao East & Road Guangfu South." lat="25.0410833333" lng="121.5578" tot="22" sus="15" distance="" mday="01/07 14:28:24" icon_type="2" qqq="38"/>
<marker name="台北市政府" address="台北市政府東門(松智路) " nameen="Taipei City Hall" addressen="Taipei City Government Eastgate (Song Zhi Road)" lat="25.0377972222" lng="121.565169444" tot="20" sus="20" distance="" mday="01/07 14:28:28" icon_type="2" qqq="40"/>
<marker name="市民廣場" address="市府路/松壽路(西北側) " nameen="Citizen Square" addressen="The N.W. side of Road Shifu & Road Song Shou." lat="25.0360361111" lng="121.562325" tot="39" sus="17" distance="" mday="01/07 09:39:15" icon_type="2" qqq="60"/>
<marker name="興雅國中" address="" nameen="" addressen="" lat="25.0365638889" lng="121.5686639" tot="34" sus="26" distance="" mday="01/07 14:28:29" icon_type="2" qqq="60"/>
<marker name="世貿二館" address="松智路/松廉路(東北側) " nameen="TWTC Exhibition Hall 2" addressen="The N.E. side of Road Song Zhi & Road Song Lian." lat="25.0347361111" lng="121.565658333" tot="35" sus="44" distance="" mday="01/07 14:28:31" icon_type="2" qqq="80"/>
<marker name="信義廣場(台北101)" address="松智路/信義路(東北側) " nameen="Xinyi Square(Taipei 101)" addressen="The N.E. side of Road Song Zhi & Road Xinyi." lat="25.0330388889" lng="121.565619444" tot="10" sus="69" distance="" mday="01/07 14:28:08" icon_type="2" qqq="80"/>
<marker name="世貿三館" address="市府路/松壽路(東南側) " nameen="TWTC Exhibition Hall 3" addressen="The S.E. side of Road Shifu & Road Song Shou." lat="25.0352138889" lng="121.563688889" tot="40" sus="19" distance="" mday="01/07 14:28:07" icon_type="2" qqq="60"/>
<marker name="松德站" address="台北市信義區松德路300號" nameen="Songde" addressen="No.300" lat="25.03159" lng="121.574353" tot="14" sus="18" distance="" mday="01/07 14:28:12" icon_type="2" qqq="32"/>
<marker name="台北市災害應變中心" address="台北市信義區莊敬路391巷11弄2號" nameen="Emergency Operations Center of Taipei City" addressen="No.2" lat="25.0286611111" lng="121.566116667" tot="0" sus="53" distance="" mday="01/07 14:28:19" icon_type="3" qqq="54"/>
<marker name="三張犁" address="光復南路/基隆路一段364巷" nameen="Sanchangli" addressen="The S.E. side of Road Guangfu South & Ln. 346" lat="25.034937" lng="121.55762" tot="2" sus="24" distance="" mday="01/07 14:28:23" icon_type="2" qqq="26"/>
<marker name="臺北醫學大學" address="台北醫學大學(吳興街220巷59弄)" nameen="Taipei Medical University" addressen="Aly. 59" lat="25.026679" lng="121.561747" tot="19" sus="15" distance="" mday="01/07 14:28:29" icon_type="2" qqq="34"/>
<marker name="福德公園" address="大道路/福德街路口北西側" nameen="Fude Park" addressen="The N.W. side of Road Dadao & St. Fude." lat="25.03809" lng="121.58367" tot="8" sus="58" distance="" mday="01/07 14:28:06" icon_type="2" qqq="66"/>
<marker name="榮星花園" address="五常街/龍江路口(西南側)" nameen="Rongxing Park" addressen="The S.W. side of St.Wuchang & Road Longjiang." lat="25.06424" lng="121.54037" tot="5" sus="27" distance="" mday="01/07 14:28:15" icon_type="2" qqq="32"/>
<marker name="饒河夜市" address="八德路/松信路(西南側)" nameen="Raohe Night Market" addressen="The S.W. side of Road Bade & Road SongXiny." lat="25.049845" lng="121.571885" tot="0" sus="37" distance="" mday="01/07 14:28:13" icon_type="3" qqq="38"/>
<marker name="松山家商" address="林口街/福德街(南東側)" nameen="Songshan Vocational High School" addressen="The S.E. side of St. Linkou & St. Fude." lat="25.036084" lng="121.579135" tot="6" sus="42" distance="" mday="01/07 14:28:22" icon_type="2" qqq="48"/>
<marker name="民生光復路口" address="光復北路/民生東路(西北側)" nameen="Minsheng & Guangfu Intersection" addressen="The N.W. side of Road Guangfu S & Road Minsheng E." lat="25.05840" lng="121.55504" tot="17" sus="17" distance="" mday="01/07 14:28:30" icon_type="2" qqq="34"/>
<marker name="社教館" address="八德路三段25號前" nameen="Taipei Cultural Center" addressen="No.25" lat="25.048268" lng="121.552278" tot="16" sus="21" distance="" mday="01/07 14:28:12" icon_type="2" qqq="38"/>
<marker name="中強公園" address="松仁路153巷17號對面" nameen="Zhongqiang Park" addressen="No.17" lat="25.02863" lng="121.56981" tot="4" sus="26" distance="" mday="01/07 14:27:09" icon_type="2" qqq="30"/>
<marker name="捷運科技大樓站" address="科技大樓站對面(復興南路2段西側)" nameen="MRT Technology Bldg. Sta." addressen="No.235" lat="25.025896" lng="121.543293" tot="4" sus="51" distance="" mday="01/07 14:28:12" icon_type="2" qqq="56"/>
<marker name="民生敦化路口" address="敦化民生路口公車站旁" nameen="Minsheng & Dunhua Intersection" addressen="The side of bus stop- Dunhua Minsheng Intersection." lat="25.057985" lng="121.548982" tot="12" sus="20" distance="" mday="01/07 14:28:34" icon_type="2" qqq="32"/>
<marker name="松山車站" address="松山車站西出口外自行車格內" nameen="Songshan Rail Sta." addressen="Bicycle parking lot- West exit in Songshan station" lat="25.048616" lng="121.578095" tot="5" sus="38" distance="" mday="01/07 14:28:19" icon_type="2" qqq="44"/>
<marker name="東新國小" address="東新國小側門(東明街62號前)" nameen="Dongxin Elementary School" addressen="A side entrance of Dongxin Elementery School(front of No. 62" lat="25.055074" lng="121.602798" tot="0" sus="32" distance="" mday="01/07 14:28:26" icon_type="3" qqq="32"/>
<marker name="信義建國路口" address="建國南路/信義路(西南側)" nameen="Xinyi & Jianguo Intersection" addressen="The S.W side of Jianguo South Rd. & Xinyi Rd. " lat="25.03293" lng="121.53747" tot="15" sus="31" distance="" mday="01/07 14:28:22" icon_type="2" qqq="46"/>
<marker name="永吉松信路口" address="松信路/永吉路南西側人行道" nameen="Yongji & Songxin Intersection" addressen="The sidewalk- the S.W. side of Songxin Rd. & Yongji Rd." lat="25.04543" lng="121.57205" tot="3" sus="27" distance="" mday="01/07 14:28:07" icon_type="2" qqq="30"/>
<marker name="捷運昆陽站(1號出口)" address="捷運昆陽站1號出口外停車場旁" nameen="MRT Kunyang Sta. (Exit 1)" addressen="The side of parking lots in the MRT Kunyang station (exit 1)" lat="25.050142" lng="121.592375" tot="4" sus="38" distance="" mday="01/07 14:28:25" icon_type="2" qqq="42"/>
<marker name="捷運南港展覽館站(5號出口)" address="研究院路/市民大道路口(西南側)" nameen="MRT Nangang Exhibition Center Sta. (Exit 5)" addressen="The S.W side of Academia Rd. & Shihmin Blvd." lat="25.05469" lng="121.61669" tot="1" sus="25" distance="" mday="01/07 14:28:28" icon_type="2" qqq="26"/>
<marker name="五常公園" address="松隆路/虎林街30巷口(西南側)" nameen="Wuchang Park" addressen="The S.W side of Songlong Rd. & Hulin St." lat="25.04814" lng="121.57467" tot="18" sus="18" distance="" mday="01/07 14:28:23" icon_type="2" qqq="36"/>
<marker name="金山愛國路口" address="愛國東路/金山南路(西南側)" nameen="Jinshan & Aiguo Intersection" addressen="The S.W side of Aiguo St. & Jinshan Rd." lat="25.03164" lng="121.52655" tot="10" sus="44" distance="" mday="01/07 14:28:16" icon_type="2" qqq="54"/>
<marker name="基隆長興路口" address="基隆路/長興街(東南側)" nameen="Keelung & Changxing Intersection" addressen="The S.W side of Keelung Rd. & Changsing St." lat="25.017054" lng="121.544352" tot="11" sus="29" distance="" mday="01/07 14:28:16" icon_type="2" qqq="40"/>
<marker name="辛亥新生路口" address="辛亥路/新生南路(高架橋下)" nameen="Xinhai & Xinsheng Intersection" addressen="Under the bridge- Sinhai Rd. & Shinsheng S. Rd." lat="25.022413" lng="121.53456" tot="3" sus="27" distance="" mday="01/07 14:28:17" icon_type="2" qqq="30"/>
<marker name="捷運六張犁站" address="捷運出口外和平東路側" nameen="MRT Liuzhangli Sta." addressen="The outside of the MRT exit and the side of Heping E. Rd." lat="25.023884" lng="121.553161" tot="4" sus="26" distance="" mday="01/07 14:28:13" icon_type="2" qqq="30"/>
<marker name="中崙高中" address="八德路四段91巷(中崙高中)旁" nameen="Zhonglun High School" addressen="The side of Ln. 91" lat="25.04878" lng="121.56087" tot="0" sus="46" distance="" mday="01/07 14:28:18" icon_type="3" qqq="46"/>
<marker name="捷運行天宮站(1號出口)" address="捷運行天宮1號出口後方(松江路側)" nameen="MRT Xingtian Temple Sta. (Exit 1)" addressen="The side of Songjiang Rd.(the exit 1 of the MRT station of Xingtian Temple)" lat="25.058369" lng="121.532934" tot="1" sus="31" distance="" mday="01/07 14:28:34" icon_type="2" qqq="32"/>
<marker name="捷運行天宮站(3號出口)" address="捷運行天宮站3號出口站外" nameen="MRT Xingtian Temple Sta. (Exit 3)" addressen="The outside of the MRT station of Xingtian Temple." lat="25.059978" lng="121.533302" tot="10" sus="20" distance="" mday="01/07 14:28:10" icon_type="2" qqq="30"/>
<marker name="臺大資訊大樓" address="辛亥路二段(臺大外語學院外)" nameen="NTU Information Bldg." addressen="Sec. 2" lat="25.02101" lng="121.54153" tot="18" sus="14" distance="" mday="01/07 14:28:06" icon_type="2" qqq="32"/>
<marker name="捷運東門站(4號出口)" address="信義路/麗水街口" nameen="MRT Dongmen Sta. (Exit 4)" addressen="Ren’ai Rd. & Lishuei St. " lat="25.033700" lng="121.529166 " tot="7" sus="41" distance="" mday="01/07 14:28:05" icon_type="2" qqq="50"/>
<marker name="臺灣師範大學(圖書館)" address="和平東路/師大路口(北側)" nameen="NTNU Library" addressen="The N. side of Heping E. Rd. & Shihda Rd." lat="25.02665" lng="121.52889" tot="1" sus="33" distance="" mday="01/07 14:28:17" icon_type="2" qqq="34"/>
<marker name="南港世貿公園" address="三重路/經貿二路88巷(東北側)" nameen="Nangang Park" addressen="The N.E. side of Sanchong Rd. & Ln. 88" lat="25.058" lng="121.61422" tot="12" sus="14" distance="" mday="01/07 14:28:11" icon_type="2" qqq="26"/>
<marker name="玉成公園" address="玉成街247號前" nameen="Yucheng Park" addressen="The front of No. 247" lat="25.04287" lng="121.58640" tot="10" sus="24" distance="" mday="01/07 14:28:18" icon_type="2" qqq="34"/>
<marker name="中研公園" address="研究院路二段12巷/研究院路二段12巷58弄(西南側)" nameen="Academia Park" addressen="The S.W side of Ln. 12" lat="25.047425" lng="121.613706" tot="9" sus="21" distance="" mday="01/07 14:28:29" icon_type="2" qqq="30"/>
<marker name="捷運後山埤站(1號出口)" address="中坡北路/忠孝東路五段(西北側)" nameen="MRT Houshanpi Sta.(Exit 1)" addressen="The S.W side of Jhongsiao E. Rd. & Jhongpo N. Rd." lat="25.04431" lng="121.58174" tot="2" sus="36" distance="" mday="01/07 14:28:28" icon_type="2" qqq="38"/>
<marker name="凌雲市場" address="研究院路三段68巷/凌雲街(東北側)" nameen="Linyun Market" addressen="The N.E. side of St. Lingyun & Academia Rd." lat="25.035639" lng="121.614154" tot="18" sus="18" distance="" mday="01/07 14:28:27" icon_type="2" qqq="36"/>
<marker name="捷運南港軟體園區站(2號出口)" address="捷運南港軟體園區站2號出口外" nameen="MRT Nangang Software Park Sta.(Exit 2)" addressen="The outside of the MRT station exit 2 of Taipei Nangang Exhibition Center" lat="25.05973" lng="121.616187" tot="4" sus="31" distance="" mday="01/07 14:28:27" icon_type="2" qqq="36"/>
<marker name="捷運公館站(2號出口)" address="羅斯福路四段/舟山路(東北側)" nameen="MRT Gongguan Sta.(Exit 2)" addressen="The N.W. side of Roosevelt Rd.& Sinhai Rd." lat="25.01476 " lng="121.534538 " tot="0" sus="30" distance="" mday="01/07 14:28:25" icon_type="3" qqq="30"/>
<marker name="南港國小" address="惠民街/興東街(南側停車場)" nameen="Nangang Elementary School" addressen="The opposite of parking lots of exit Singdong St. (Nan-Gang Elementary School)" lat="25.05646" lng="121.611027 " tot="15" sus="29" distance="" mday="01/07 14:28:10" icon_type="2" qqq="44"/>
<marker name="捷運忠孝新生(3號出口)" address="捷運忠孝新生(3號出口)" nameen="MRT Zhongxiao Xinsheng Sta.Exit 3 (testing)" addressen="The intersection of Sec. 3" lat="25.041924 " lng="121.533862 " tot="32" sus="6" distance="" mday="01/07 14:28:19" icon_type="2" qqq="40"/>
<marker name="南港車站" address="忠孝東路七段與忠孝東路七段415巷交叉口" nameen="Nangang Rail Sta." addressen="The intersection of Sec. 7" lat="25.05247" lng="121.608202" tot="4" sus="34" distance="" mday="01/07 14:26:24" icon_type="2" qqq="38"/>
<marker name="龍門廣場" address="忠孝東路/敦化南路(西南側廣場）" nameen="Longmen Square(Testing)" addressen="Sec. 1" lat="25.040901" lng="121.548252 " tot="11" sus="41" distance="" mday="01/07 14:28:09" icon_type="2" qqq="52"/>
<marker name="民權運動公園" address="民權東路四段/新中街交叉口" nameen="MinQuan Park" addressen="The intersection of Sec. 4" lat="25.062002" lng="121.560186" tot="26" sus="26" distance="" mday="01/07 14:28:24" icon_type="2" qqq="52"/>
<marker name="建國農安街口" address="建國北路/農安街口(中油旁邊空地)" nameen="Jianguo & Nongan Intersection" addressen="(Behind empty area of CPC coporation) Jianguo N. Rd. & Nong’an St." lat="25.065031" lng="121.536775 " tot="7" sus="37" distance="" mday="01/07 14:28:05" icon_type="2" qqq="44"/>
<marker name="建國長春路口" address="建國北路/長春路口(北側)" nameen="Jianguo & Changchun Intersection" addressen="The N. side of Jianguo N. Rd. & Changchun Rd." lat="25.054761" lng="121.536925" tot="5" sus="25" distance="" mday="01/07 14:28:13" icon_type="2" qqq="30"/>
<marker name="八德市場" address="建國南路一段/市民大道交叉口(北側) " nameen="Bade Market" addressen="The intersection of Sec.1" lat="25.044781" lng="121.536609" tot="13" sus="13" distance="" mday="01/07 14:28:12" icon_type="2" qqq="26"/>
<marker name="臺北市立圖書館(總館)" address="建國南路二段/建國南路二段151巷(東北側)" nameen="Taipei Public Library" addressen="The N.E. side of Sec. 2" lat="25.028798" lng="121.538073" tot="21" sus="8" distance="" mday="01/07 14:28:11" icon_type="2" qqq="30"/>
<marker name="臺北田徑場" address="敦化北路3號" nameen="Taipei Stadium" addressen="No.3" lat="25.049505" lng="121.549408" tot="28" sus="18" distance="" mday="01/07 14:28:22" icon_type="2" qqq="46"/>
<marker name="Y-17青少年育樂中心" address="林森南路/仁愛路一段路口(東北側)" nameen="Y17 Youth Recreation Center" addressen="The N.E. side of Linsen S. Rd & Sec. 1" lat="25.038954" lng="121.522334" tot="27" sus="3" distance="" mday="01/07 14:28:06" icon_type="2" qqq="42"/>
<marker name="新生和平路口" address="新生南路二段/和平東路二段(東北側)" nameen="Xinsheng & Heping Intersection" addressen="The N.E. side of Sec. 2" lat="25.026217" lng="121.53519" tot="5" sus="41" distance="" mday="01/07 14:28:14" icon_type="2" qqq="46"/>
<marker name="捷運善導寺站(1號出口)" address="天津街/忠孝東路一段(東北側)" nameen="MRT Shandao Temple Sta(Exit 1)" addressen="The N.E. side of Tianjin St. & Sec. 1" lat="25.045267" lng="121.522200 " tot="18" sus="30" distance="" mday="01/07 14:28:17" icon_type="2" qqq="48"/>
<marker name="林森公園" address="林森北路/南京東路一段" nameen="Linsen Park" addressen="Linsen N. Rd. & Sec. 1" lat="25.052227" lng="121.525805 " tot="29" sus="3" distance="" mday="01/07 14:28:33" icon_type="2" qqq="32"/>
<marker name="中山行政中心" address="松江路/農安街口" nameen="Zhongshan Dist. Admin. Office" addressen="Songjiang Rd. & Nong’an St." lat="25.064317" lng="121.533487 " tot="1" sus="29" distance="" mday="01/07 14:28:31" icon_type="2" qqq="30"/>
<marker name="台灣科技大學" address="基隆路四段/基隆路四段73巷交叉口" nameen="N.T.U.S.T" addressen="The intersection of Sec. 4" lat="25.0131" lng="121.539723 " tot="23" sus="23" distance="" mday="01/07 14:28:11" icon_type="2" qqq="46"/>
<marker name="南昌公園" address="和平西路一段/南昌路" nameen="Nanchang Park" addressen="Sec. 1" lat="25.026827" lng="121.520258" tot="13" sus="21" distance="" mday="01/07 14:28:18" icon_type="2" qqq="34"/>
<marker name="仁愛醫院" address="大安路一段/仁愛路四段" nameen="Taipei City Hospital Renai Branch" addressen="Da’an Rd. & Sec. 4" lat="25.037569" lng="121.545632" tot="33" sus="3" distance="" mday="01/07 14:28:15" icon_type="2" qqq="36"/>
<marker name="國家圖書館" address="中山南路/貴陽街口(西南側)" nameen="National Central Library" addressen="The S.W. side of Zhongshan S. Rd. & Guiyang St." lat="25.037773" lng="121.517029" tot="37" sus="13" distance="" mday="01/07 14:28:28" icon_type="2" qqq="50"/>
<marker name="青年公園3號出口" address="青年路/青年路106巷(東側)" nameen="Youth Park Exit 3" addressen="The E. side of Qingnian Rd. & Ln. 106" lat="25.022725" lng="121.502708 " tot="13" sus="25" distance="" mday="01/07 14:28:26" icon_type="2" qqq="38"/>
<marker name="師範大學公館校區" address="師大公館校區校門口(汀州路側)" nameen="NTNU Gongguan Campus" addressen="The side of Tingzhou Rd. (National Taiwan Normal University- Gongguan Campus)" lat="25.007528" lng="121.537188 " tot="5" sus="37" distance="" mday="01/07 14:28:20" icon_type="2" qqq="42"/>
<marker name="捷運臺大醫院(4號出口)" address="公園路/襄陽路(西南側)" nameen="MRT Nat’l Taiwan U. Hospital Sta.(Exit 4)" addressen="The S.W. side of Gongyuan Rd. & Siangyang Rd." lat="25.042973" lng="121.516428" tot="1" sus="47" distance="" mday="01/07 14:28:13" icon_type="2" qqq="48"/>
<marker name="國興青年路口" address="國興路/青年路(西南側)" nameen="Guoxing & Qingnian Intersection" addressen="The S.W. side of Guoxing Rd. & Qingnian Rd." lat="25.025865" lng="121.506536" tot="1" sus="35" distance="" mday="01/07 14:28:20" icon_type="2" qqq="36"/>
<marker name="興豐公園" address="興隆路二段123巷/興隆路二段(西北側)" nameen="Xingfong Park" addressen="The N.W. side of Ln. 123" lat="24.999837" lng="121.547778" tot="2" sus="30" distance="" mday="01/07 14:28:24" icon_type="2" qqq="34"/>
<marker name="捷運台北101/世貿站" address="莊敬路/信義線五段(東南側)" nameen="MRT Taipei 101/World Trade Center Sta." addressen="The S.E. side of Zhuangjing Rd. & Sec. 5" lat="25.032752" lng="121.561645" tot="25" sus="27" distance="" mday="01/07 14:28:21" icon_type="2" qqq="52"/>
<marker name="捷運信義安和站" address="通化街/信義路四段(西南側)" nameen="MRT Xinyi Anhe Sta." addressen="The S.W. side of Tonghua St. & Sec. 4" lat="25.032985" lng="121.554204" tot="2" sus="28" distance="" mday="01/07 14:28:23" icon_type="2" qqq="30"/>
<marker name="新生長安路口" address="新生北路一段/長安東路二段交叉口(北側)" nameen="Xinsheng & Changan Intersection" addressen="The intersection of Sec. 1" lat="25.048611" lng="121.529346" tot="21" sus="21" distance="" mday="01/07 14:28:27" icon_type="2" qqq="42"/>
<marker name="酒泉延平路口" address="延平北路四段/酒泉街(西北側)" nameen="Jiuquan & Yanping Intersection" addressen="The N.W. side of Sec. 4" lat="25.072228" lng="121.510195" tot="17" sus="15" distance="" mday="01/07 14:28:21" icon_type="2" qqq="32"/>
<marker name="信義連雲街口" address="信義路二段/連雲街(東北側)" nameen="Xinyi & Lianyun intersection" addressen="The N.S. side of Lianyun St. & Sec. 2" lat="25.033817" lng="121.530547" tot="8" sus="32" distance="" mday="01/07 14:28:21" icon_type="2" qqq="40"/>
<marker name="基隆光復路口" address="基隆路二段/光復南路(東北側)" nameen="Keelung & Guangfu Intersection" addressen="The intersection of Sec. 2" lat="25.030055" lng="121.557841" tot="7" sus="22" distance="" mday="01/07 14:28:20" icon_type="2" qqq="30"/>
<marker name="新生長春路口" address="新生北路二段/新生北路二段68巷交叉口(新生橋下)" nameen="Xinsheng & Changchun Intersection" addressen="Under the bridge- the intersection of Sec. 2" lat="25.056387" lng="121.527522" tot="27" sus="9" distance="" mday="01/07 14:28:18" icon_type="2" qqq="36"/>
<marker name="民生活動中心" address="民生東路五段/三民路口(西北側)" nameen="Minsheng Activity Center" addressen="The N.W. side of Sec. 5" lat="25.059147" lng="121.56297" tot="22" sus="10" distance="" mday="01/07 14:28:19" icon_type="2" qqq="32"/>
<marker name="捷運圓山站(2號出口)" address="承德路三段/庫倫街(東南側)" nameen="MRT Yuanshan Sta. (Exit 2)" addressen="The S.E. side of Sec. 3" lat="25.071824" lng="121.519287" tot="22" sus="30" distance="" mday="01/07 14:28:10" icon_type="2" qqq="52"/>
<marker name="捷運民權西路站(3號出口)" address="民權西路70巷37號對面" nameen="MRT Minquan W.Rd. Sta.(Exit 3)" addressen="The opposite of No.37" lat="25.061285" lng="121.520205" tot="22" sus="27" distance="" mday="01/07 14:28:24" icon_type="2" qqq="50"/>
<marker name="華江高中" address="東園街/東園街35巷(東北側)" nameen="Huajiang High School" addressen="The N.E. side of Dongyuan St. & Ln. 35" lat="25.02751" lng="121.495869" tot="2" sus="42" distance="" mday="01/07 14:28:30" icon_type="2" qqq="44"/>
<marker name="捷運台電大樓站(2號出口)" address="羅斯福路/辛亥路交叉口(古亭國小前)" nameen="MRT Taipower Building Sta. (Exit 2)" addressen="The intersection of Roosevelt Rd. & Xinhai Rd. (Gu Ting Elementary School) " lat="25.020547" lng="121.528552" tot="1" sus="39" distance="" mday="01/07 14:27:09" icon_type="2" qqq="40"/>
<marker name="捷運西門站(3號出口)" address="中華路一段/寶慶路(東南側)" nameen="MRT Ximen Sta.(Exit 3)" addressen="The S.E. side of Sec. 1" lat="25.041778" lng="121.508693 " tot="23" sus="36" distance="" mday="01/07 14:28:05" icon_type="2" qqq="60"/>
<marker name="捷運大安森林公園站" address="信義路三段31巷/信義路三段(南側)" nameen="MRT Daan Park Sta." addressen="The S. side of Ln. 31" lat="25.033156" lng="121.535161" tot="3" sus="71" distance="" mday="01/07 14:28:15" icon_type="2" qqq="74"/>
<marker name="復華花園新城" address="西藏路115號/西藏路(東南側)" nameen="Fuhua Garden New Village(City)" addressen="The S.E. side of No.115" lat="25.029705" lng="121.502899" tot="12" sus="26" distance="" mday="01/07 14:28:25" icon_type="2" qqq="38"/>
<marker name="信義敦化路口" address="信義路四段/敦化南路一段(東北側)" nameen="Xinyi & Dunhua Intersection" addressen="The N.E. side of Sec. 4" lat="25.033362" lng="121.54911" tot="14" sus="32" distance="" mday="01/07 14:28:20" icon_type="2" qqq="46"/>
<marker name="民權復興路口" address="復興北路/民權東路三段(東北側)" nameen="Minquan & Fuxing Intersection" addressen="The N.E. side of Fuxing N. Rd. & Sec. 3" lat="25.062344" lng="121.545138" tot="43" sus="3" distance="" mday="01/07 14:28:18" icon_type="2" qqq="46"/>
<marker name="捷運大安站" address="復興南路/信義路三段(西南側)" nameen="MRT Daan Sta." addressen="The S.W. side of Fuxing S. Rd. & Sec. 3 Xinyi Rd." lat="25.033078" lng="121.543057" tot="28" sus="28" distance="" mday="01/07 14:28:18" icon_type="2" qqq="58"/>
<marker name="捷運象山站" address="信義路五段/信義路五段91巷(西北側)" nameen="MRT Xiangshan Sta." addressen="The N.W. side of Sec. 5" lat="25.032835" lng="121.571274" tot="6" sus="52" distance="" mday="01/07 14:28:06" icon_type="2" qqq="58"/>
<marker name="和平重慶路口" address="重慶南路三段/和平西路一段(東北側)" nameen="Heping Chongqing Intersection" addressen="The N.E. side of Sec. 3" lat="25.027323" lng="121.516385" tot="4" sus="40" distance="" mday="01/07 14:28:15" icon_type="2" qqq="44"/>
<marker name="老松國小" address="康定路/桂林路(東南側)" nameen="Laosong Elementary School" addressen="The S.E. side of Kangding Rd. & Guilin Rd." lat="25.037783" lng="121.501708" tot="18" sus="26" distance="" mday="01/07 14:28:32" icon_type="2" qqq="44"/>
<marker name="市立美術館" address="中山北路三段/酒泉街(西南側)" nameen="Taipei Fine Arts Museum" addressen="The S.W. side of Sec. 3" lat="25.070629" lng="121.523268" tot="0" sus="36" distance="" mday="01/07 14:28:13" icon_type="3" qqq="36"/>
<marker name="開封西寧路口" address="開封街二段/西寧南路(東北側)" nameen="Kaifong & Xining Intersection" addressen="The N.E. side of Sec. 2" lat="25.046618" lng="121.507169" tot="20" sus="22" distance="" mday="01/07 14:28:09" icon_type="2" qqq="42"/>
<marker name="吳興公車總站" address="松仁路/吳興街交叉口" nameen="Wu Xing Bus Station." addressen="The intersection of Songren Rd. & Wuxing St." lat="25.023877" lng="121.569836" tot="1" sus="35" distance="" mday="01/07 14:28:07" icon_type="2" qqq="36"/>
<marker name="捷運景美站" address="羅斯福路六段/景中街交叉口(東北側)" nameen="MRT Jingmei Sta." addressen="The intersectionof Sec. 6" lat="24.993254" lng="121.541059" tot="30" sus="22" distance="" mday="01/07 14:28:31" icon_type="2" qqq="52"/>
<marker name="東園國小" address="東園街/萬大路344巷(東南側)" nameen="Dongyuan Elementary School" addressen="The S.E. side of Dongyuan St. & Ln. 344" lat="25.023393" lng="121.497679" tot="2" sus="34" distance="" mday="01/07 14:28:24" icon_type="2" qqq="36"/>
<marker name="三民公園" address="撫遠街/富錦街(東南側)" nameen="Sanmin Park" addressen="The S.E. side of Fuyuan St. & Fujin St." lat="25.061567" lng="121.566558" tot="2" sus="28" distance="" mday="01/07 14:28:06" icon_type="2" qqq="30"/>
<marker name="捷運劍潭站(2號出口)" address="基河路18號對面" nameen="MRT Jiantan Sta.(EXIT. 2)" addressen="The opposite of No.18" lat="25.082825" lng="121.524721" tot="29" sus="23" distance="" mday="01/07 14:28:13" icon_type="2" qqq="52"/>
<marker name="羅斯福景隆街口" address="羅斯福路六段/景隆街交叉口(東南側)" nameen="Roosevelt & Jinglong Intersection" addressen="The intersection of Sec. 6" lat="24.999378" lng="121.540197" tot="11" sus="37" distance="" mday="01/07 14:28:30" icon_type="2" qqq="48"/>
<marker name="捷運雙連站(2號出口)" address="民生西路/萬全街(東北側)" nameen="MRT Shuanglian Sta. (Exit 2)" addressen="The N.E. side of Minsheng W. Rd. & Wanquan St." lat="25.057866" lng="121.520711" tot="4" sus="38" distance="" mday="01/07 14:28:23" icon_type="2" qqq="42"/>
<marker name="金山市民路口" address="金山北路/市民大道三段(南側)" nameen="Jinshen & Civic Blvd. Intersection" addressen="The S. side of Jinshan N. Rd. & Sec. 3" lat="25.045753" lng="121.530697" tot="25" sus="15" distance="" mday="01/07 14:28:17" icon_type="2" qqq="40"/>
<marker name="華山文創園區" address="忠孝東路二段41號前" nameen="Huashan 1914‧Creative Park" addressen="Front of No.41" lat="25.043668" lng="121.528487" tot="33" sus="17" distance="" mday="01/07 14:28:12" icon_type="2" qqq="50"/>
<marker name="臺北市客家文化主題公園" address="師大路/汀州路交叉口" nameen="Taipei City Hakka Cultural Park" addressen="The intersection of Shida Rd. & Tingzhou Rd." lat="25.02043" lng="121.525322" tot="4" sus="28" distance="" mday="01/07 14:28:28" icon_type="2" qqq="32"/>
<marker name="萬大興寧街口" address="萬大路/興寧街(西南側)" nameen="Wanda & Xingning Intersection" addressen="The S.W. side of Wanda Rd. & Xingning St." lat="25.031974" lng="121.500474" tot="11" sus="41" distance="" mday="01/07 14:28:15" icon_type="2" qqq="52"/>
<marker name="台北花木批發市場" address="萬盛街/興隆路一段(西北側)" nameen="Taipei Pot Plant Auction" addressen="The N.W. side of Wansheng St. Sec. 1" lat="25.004023" lng="121.54074" tot="0" sus="38" distance="" mday="01/07 14:28:17" icon_type="3" qqq="38"/>
<marker name="峨嵋停車場" address="昆明街/西寧南路50巷(東南側)" nameen="Emei Parking Lot" addressen="The S.E. side of Kunming St. & Ln. 50" lat="25.044412" lng="121.505409" tot="16" sus="26" distance="" mday="01/07 14:28:26" icon_type="2" qqq="42"/>
<marker name="西園艋舺路口" address="西園路二段/艋舺大道(西南側)" nameen="Xiyuan & Bangka Intersection" addressen="The S.W. side of Sec. 2" lat="25.032932" lng="121.497674" tot="14" sus="30" distance="" mday="01/07 14:28:05" icon_type="2" qqq="44"/>
<marker name="捷運小南門站(1號出口)" address="博愛路/愛國西路交叉口(西北側)" nameen="MRT Xiaonanmen Sta. (Exit 1)" addressen="The intersection of Bo’ai Rd. & Aiguo W. Rd." lat="25.036402" lng="121.509422" tot="7" sus="47" distance="" mday="01/07 14:28:32" icon_type="2" qqq="54"/>
<marker name="臺北孔廟" address="哈密街59巷/哈密街(東北側)" nameen="Taipei Confucius Temple" addressen="The N.E. side of Ln. 59" lat="25.073306" lng="121.515843" tot="13" sus="19" distance="" mday="01/07 14:28:29" icon_type="2" qqq="32"/>
<marker name="林安泰古厝" address="吉林路/民族東路(北側)" nameen="Lin An-tai Historical House" addressen="The N. side of Jilin Rd. & Minzu E. Rd." lat="25.071606" lng="121.530805" tot="19" sus="17" distance="" mday="01/07 14:28:06" icon_type="2" qqq="36"/>
<marker name="文湖國小" address="文湖街21巷/文湖街(東北側)" nameen="Wenhu Elementary School" addressen="The N.E. side of Ln. 21" lat="25.086376" lng="121.560888" tot="0" sus="44" distance="" mday="01/07 14:28:16" icon_type="3" qqq="44"/>
<marker name="捷運忠孝復興站(2號出口)" address="復興南路一段/仁愛路三段123巷13弄(西北側)" nameen="MRT Zhongxiao Fuxing Sta.(Exit. 2)" addressen="The N.W. side of Sec. 1" lat="25.040184" lng="121.543497" tot="10" sus="42" distance="" mday="01/07 14:28:31" icon_type="2" qqq="54"/>
<marker name="捷運新北投站" address="大業路/中和街交叉口" nameen="MRT Xinbeitou Sta." addressen="Daye Rd. & Zhonghe St. Intersection" lat="25.137456" lng="121.503124" tot="2" sus="46" distance="" mday="01/07 14:28:11" icon_type="2" qqq="48"/>
<marker name="仁愛逸仙路口" address="仁愛路四段/逸仙路(西北側)" nameen="Renai & Yixian Intersection" addressen="Sec. 4" lat="25.037724" lng="121.561178" tot="14" sus="24" distance="" mday="01/07 14:28:18" icon_type="2" qqq="38"/>
<marker name="蘭雅公園" address="忠誠路二段/忠誠路二段40巷(西南側)" nameen="Lanya Park" addressen="Sec. 2" lat="25.109908" lng="121.530386" tot="18" sus="12" distance="" mday="01/07 14:28:23" icon_type="2" qqq="30"/>
<marker name="臺北轉運站" address="中山北路一段/市民大道一段(西北側)" nameen="Taipei Bus Sta." addressen="Sec. 1" lat="25.048222" lng="121.520526" tot="9" sus="59" distance="" mday="01/07 14:28:09" icon_type="2" qqq="68"/>
<marker name="福林公園" address="志成街/中正路(南側)" nameen="Zhicheng St. & Zhongzheng Rd." addressen="Zhicheng St. & Zhongzheng Rd." lat="25.096122" lng="121.530215" tot="25" sus="19" distance="" mday="01/07 14:28:21" icon_type="2" qqq="44"/>
<marker name="捷運北投站" address="光明路2 巷/光明路交叉口" nameen="MRT Beitou Sta." addressen="Ln. 2" lat="25.132581" lng="121.498618" tot="21" sus="37" distance="" mday="01/07 14:28:10" icon_type="2" qqq="58"/>
<marker name="大業大同街口" address="大業路/大同街口" nameen="Daye & Datong Intersection" addressen="Daye Rd. & Datong St. Intersection" lat="25.136929" lng="121.499152" tot="25" sus="11" distance="" mday="01/07 14:28:18" icon_type="2" qqq="36"/>
<marker name="捷運劍南路站(2號出口)" address="敬業二路/植福路(東北側)" nameen="MRT Jiannan Rd. Sta.(Exit 2)" addressen="Jingye 2nd Rd. & Zhifu Rd." lat="25.08418" lng="121.555116" tot="8" sus="48" distance="" mday="01/07 14:28:31" icon_type="2" qqq="56"/>
<marker name="捷運龍山寺站(1號出口)" address="和平西路三段/和平西路三段109巷(西北側)" nameen="MRT Longshan Temple Sta. (Exit. 1)" addressen="Sec. 3" lat="25.035479" lng="121.50026" tot="21" sus="25" distance="" mday="01/07 14:28:14" icon_type="2" qqq="46"/>
<marker name="龍江南京路口" address="龍江路110號對面停車場" nameen="Longjiang & Nanjing Intersection" addressen="No.100" lat="25.05298" lng="121.540568" tot="39" sus="26" distance="" mday="01/07 14:28:11" icon_type="2" qqq="66"/>
<marker name="捷運港墘站(2號出口)" address="內湖路一段/港墘路(東南側)" nameen="MRT Gangqian Sta. (Exit 2)" addressen="" lat="25.079681" lng="121.575458" tot="11" sus="39" distance="" mday="01/07 14:28:21" icon_type="2" qqq="50"/>
<marker name="天母運動公園" address="忠誠路二段/忠誠路二段207巷(東南側)" nameen="Tienmu Sports Park" addressen="Sec.2" lat="25.116325" lng="121.534136" tot="29" sus="15" distance="" mday="01/07 14:28:33" icon_type="2" qqq="44"/>
<marker name="振華公園" address="振華街36號對面" nameen="Zenhua Park" addressen="No.36" lat="25.115863" lng="121.518163" tot="12" sus="24" distance="" mday="01/07 14:28:24" icon_type="2" qqq="36"/>
<marker name="華西公園" address="華西街/桂林路(東北側)" nameen="Huaxi Park" addressen="Huaxi St. & Guilin Rd." lat="25.038609" lng="121.498495" tot="7" sus="23" distance="" mday="01/07 14:28:26" icon_type="2" qqq="30"/>
<marker name="成功國宅" address="四維路198巷/和平東路三段1巷" nameen="Chengong Public Housing" addressen="Ln. 198" lat="25.026808" lng="121.546726" tot="6" sus="28" distance="" mday="01/07 14:28:06" icon_type="2" qqq="36"/>
<marker name="捷運文德站(2號出口)" address="文德路220巷/文德路(西南側)" nameen="MRT Wende Sta. (Exit 2)" addressen="Ln. 220" lat="25.078292" lng="121.585264" tot="23" sus="27" distance="" mday="01/07 14:28:13" icon_type="2" qqq="50"/>
<marker name="羅斯福寧波東街口" address="羅斯福路一段/寧波東街(東南側)" nameen="Roosevelt & Ningbo E. St. Intersection" addressen="Sec. 1" lat="25.031445" lng="121.519411" tot="3" sus="23" distance="" mday="01/07 14:28:34" icon_type="2" qqq="26"/>
<marker name="洲子二號公園" address="瑞光路500號對面" nameen="Zhouzhi Park No.2" addressen="Opposite to the parking space No.500" lat="25.079322" lng="121.568688" tot="33" sus="1" distance="" mday="01/07 14:28:34" icon_type="2" qqq="34"/>
<marker name="羅斯福新生南路口" address="羅斯福路四段/新生南路三段交叉口" nameen="@Roosevelt & Xinsheng S. Intersection" addressen="Sec. 4" lat="25.01603085" lng="121.5331757" tot="3" sus="84" distance="" mday="01/07 14:28:08" icon_type="2" qqq="88"/>
<marker name="蘭興公園" address="中山北路六段/士東路(西北側)" nameen="@Lanxing Park" addressen="Sec.6" lat="25.111839" lng="121.525888" tot="10" sus="29" distance="" mday="01/07 14:28:11" icon_type="2" qqq="40"/>
<marker name="捷運芝山站(2號出口)" address="福華路/福華路162巷(東南側)" nameen="MRT Zhishan Sta.(Exit 2)" addressen="Fuhua Rd. / Ln. 162" lat="25.10336" lng="121.522629" tot="10" sus="52" distance="" mday="01/07 14:28:07" icon_type="2" qqq="64"/>
<marker name="捷運石牌站(2號出口)" address="東華街一段/裕民二路(西側)\t" nameen="@MRT Shipai Sta. (Exit 2)" addressen="Sec. 1" lat="25.114513" lng="121.515677" tot="24" sus="29" distance="" mday="01/07 14:28:22" icon_type="2" qqq="54"/>
<marker name="國立臺北護理健康大學" address="石牌路二段130巷/石牌路二段(東南側)" nameen="@NTUNHS" addressen="Ln. 130" lat="25.118049" lng="121.517512" tot="10" sus="20" distance="" mday="01/07 14:28:22" icon_type="2" qqq="30"/>
<marker name="國防大學" address="中央北路二段/豐年路二段交叉口" nameen="Nat’l Defense U." addressen="Sec. 2" lat="25.137976" lng="121.493066" tot="15" sus="28" distance="" mday="01/07 14:28:32" icon_type="2" qqq="46"/>
<marker name="捷運永春站(2號出口)" address="忠孝東路五段420號旁(東側巷道上)" nameen="MRT Yongchun Sta. (Exit 2)\t" addressen="No.420" lat="25.040558" lng="121.575372" tot="0" sus="30" distance="" mday="01/07 14:28:14" icon_type="3" qqq="30"/>
<marker name="永樂市場" address="民樂街/南京西路233巷(西北側)" nameen="Yongle Market" addressen="Minle St." lat="25.054501" lng="121.510549" tot="18" sus="12" distance="" mday="01/07 14:28:22" icon_type="2" qqq="30"/>
<marker name="大鵬華城" address="新北市新店區中正路700巷3號" nameen="Dapeng Community" addressen="No. 3" lat="24.99116" lng="121.53398" tot="4" sus="34" distance="" mday="01/07 14:28:12" icon_type="2" qqq="38"/>
</markers>